sample_id,year,month,day,prov,site,station,latitude,longitude,start_date,end_date,ammonia,do,nitrates,nitrite,phosphate,sal,silicate,water_temp,gravel,mud,rock,sand
10042,2019,8,28,PE / Î-P-É,Souris,Causeway East (50%),46.35652,-62.27541,2019-08-28 11:15:00-03:00,2019-08-28 11:45:00-03:00,,7.7,,,,24.54,,19.4,20.0,0,0,80.0
10040,2019,8,28,PE / Î-P-É,Souris,New Zealand rd. (10%),46.374493,-62.292103,2019-08-28 10:15:00-03:00,2019-08-28 11:10:00-03:00,,8.6,,,,19.6,,18.5,0,0,0,100.0
10041,2019,8,28,PE / Î-P-É,Souris,Cahil Lane 10%,46.379258,-62.289264,2019-08-28 09:15:00-03:00,2019-08-28 10:10:00-03:00,,6.15,,,,12.63,,17.4,0,50.0,0,50.0
10039,2019,8,28,PE / Î-P-É,Souris,Paul Gallant 50%,46.35741,-62.27969,2019-08-28 08:30:00-03:00,2019-08-28 09:05:00-03:00,,6.96,,,,26.49,,18.6,10.0,0,0,90.0
10004,2019,8,28,PE / Î-P-É,Souris,Joe Carter 100%,46.35015,-62.2796,2019-08-28 08:00:00-03:00,2019-08-28 08:25:00-03:00,,6.69,,,,26.7,,18.31,0,0,0,100.0
10005,2019,8,28,PE / Î-P-É,Souris,Ferry 100%,46.35102,-62.2504,2019-08-28 07:00:00-03:00,2019-08-28 07:55:00-03:00,,7.13,,,,26.08,,18.0,0,0,0,100.0
10038,2019,8,27,PE / Î-P-É,Winter River,Sunset Lane 100%,46.380017,-63.00635,2019-08-27 13:30:00-03:00,2019-08-27 14:15:00-03:00,,8.21,,,,23.06,,17.2,30.0,0,0,70.0
10036,2019,8,27,PE / Î-P-É,Winter River,Court's Island road 50%,46.37772,-63.02224,2019-08-27 12:45:00-03:00,2019-08-27 13:25:00-03:00,,7.75,,,,24.09,,18.1,0,10.0,0,90.0
10033,2019,8,27,PE / Î-P-É,Winter River,Pleasant Grove road 10%,46.37803,-63.057578,2019-08-27 11:40:00-03:00,2019-08-27 12:30:00-03:00,,10.73,,,,2.04,,15.6,10.0,10.0,0,80.0
10034,2019,8,27,PE / Î-P-É,Winter River,Bald Eagle Lane 10%,46.376779,-63.05252,2019-08-27 11:15:00-03:00,2019-08-27 11:40:00-03:00,,10.66,,,,9.66,,17.0,0,0,0,0
10035,2019,8,27,PE / Î-P-É,Winter River,White Sickle 50%,46.384027,-63.032463,2019-08-27 10:30:00-03:00,2019-08-27 11:10:00-03:00,,6.22,,,,24.44,,19.6,40.0,10.0,0,50.0
10037,2019,8,27,PE / Î-P-É,Winter River,Queen's Point road 100%,46.390168,-63.004063,2019-08-27 09:40:00-03:00,2019-08-27 10:20:00-03:00,,7.56,,,,25.54,,16.5,20.0,0,0,80.0
9841,2019,8,19,PE / Î-P-É,Basin Head,Opposite House,46.385205,-62.116711,2019-08-19 11:30:00-03:00,2019-08-19 12:00:00-03:00,,5.88,,,,27.16,,21.5,0,25.0,0,75.0
9842,2019,8,19,PE / Î-P-É,Basin Head,Shambles,46.387051,-62.114297,2019-08-19 10:41:00-03:00,2019-08-19 11:25:00-03:00,,7.01,,,,26.21,,20.4,0,50.0,0,50.0
9839,2019,8,19,PE / Î-P-É,Basin Head,Small Creek,46.387556,-62.106785,2019-08-19 09:50:00-03:00,2019-08-19 10:30:00-03:00,,6.97,,,,26.04,,20.3,0,35.0,0,65.0
9840,2019,8,19,PE / Î-P-É,Basin Head,Across Lagoon,46.384835,-62.109143,2019-08-19 09:20:00-03:00,2019-08-19 09:45:00-03:00,,8.01,,,,27.18,,19.8,0,25.0,0,75.0
9837,2019,8,19,PE / Î-P-É,Basin Head,Slipway,46.383134,-62.11238,2019-08-19 08:30:00-03:00,2019-08-19 08:45:00-03:00,,7.72,,,,26.44,,19.6,0,25.0,0,75.0
9838,2019,8,18,PE / Î-P-É,Basin Head,Across Slipway,46.382572,-62.110019,2019-08-18 08:45:00-03:00,2019-08-18 09:15:00-03:00,,7.86,,,,27.04,,19.7,0,25.0,0,75.0
10015,2019,8,13,PE / Î-P-É,Wheatley,Kingfisher Lane 10%,46.387872,-63.268845,2019-08-13 13:00:00-03:00,2019-08-13 13:25:00-03:00,,,,,,,,,0,0,0,0
10016,2019,8,13,PE / Î-P-É,Wheatley,Cameron Lane 10%,46.38974,-63.270994,2019-08-13 12:15:00-03:00,2019-08-13 12:35:00-03:00,,13.89,,,,22.33,,22.8,0,0,0,0
10018,2019,8,13,PE / Î-P-É,Wheatley,Grand Pere Point road 50%,46.404868,-63.253044,2019-08-13 11:30:00-03:00,2019-08-13 12:15:00-03:00,,7.98,,,,25.65,,20.8,0,0,0,0
10020,2019,8,13,PE / Î-P-É,Wheatley,Grand  Pere Point road 100%,46.411164,-63.245782,2019-08-13 11:00:00-03:00,2019-08-13 11:20:00-03:00,,5.22,,,,25.23,,20.8,0,0,0,0
10017,2019,8,13,PE / Î-P-É,Wheatley,Wharf at the end of Camp road 50%,46.403786,-63.242724,2019-08-13 10:15:00-03:00,2019-08-13 10:55:00-03:00,,6.73,,,,25.91,,20.4,0,0,0,100.0
10019,2019,8,13,PE / Î-P-É,Wheatley,Sunset Drive 100%,46.405922,-63.223712,2019-08-13 09:15:00-03:00,2019-08-13 10:10:00-03:00,,7.15,,,,24.72,,20.2,0,0,0,100.0
10055,2019,8,12,PE / Î-P-É,Dunk River,Olscamp Lane 100%,46.370926,-63.801073,2019-08-12 12:15:00-03:00,2019-08-12 12:45:00-03:00,,7.63,,,,26.19,,20.7,20.0,0,0,80.0
10054,2019,8,12,PE / Î-P-É,Dunk River,Hurd's Point road 50%,46.349109,-63.762092,2019-08-12 11:30:00-03:00,2019-08-12 12:10:00-03:00,,7.97,,,,26.24,,21.5,33.0,33.0,0,34.0
10053,2019,8,12,PE / Î-P-É,Dunk River,Woodside Shore rd 10%,46.34849,-63.729185,2019-08-12 11:00:00-03:00,2019-08-12 11:25:00-03:00,,9.17,,,,19.41,,20.9,20.0,20.0,0,60.0
10058,2019,8,12,PE / Î-P-É,Dunk River,Staverts Shore 10%,46.357944,-63.731488,2019-08-12 10:15:00-03:00,2019-08-12 11:00:00-03:00,,7.87,,,,23.87,,19.7,40.0,0,0,60.0
10057,2019,8,12,PE / Î-P-É,Dunk River,Baker's Launch 50%,46.369117,-63.755742,2019-08-12 09:45:00-03:00,2019-08-12 10:15:00-03:00,,7.43,,,,25.91,,20.0,0,0,0,0
10056,2019,8,12,PE / Î-P-É,Dunk River,Bayside road 100%,46.383017,-63.762294,2019-08-12 09:15:00-03:00,2019-08-12 09:45:00-03:00,,7.81,,,,24.82,,19.0,0,0,0,0
9835,2019,7,31,PE / Î-P-É,Basin Head,Opposite House,46.385205,-62.116711,2019-07-31 10:45:00-03:00,2019-07-31 11:30:00-03:00,,5.88,,,,27.23,,23.2,25.0,0,0,75.0
9836,2019,7,31,PE / Î-P-É,Basin Head,Shambles,46.387051,-62.114297,2019-07-31 09:48:00-03:00,2019-07-31 10:30:00-03:00,,8.4,,,,23.76,,23.6,0,50.0,0,50.0
9833,2019,7,31,PE / Î-P-É,Basin Head,Small Creek,46.387556,-62.106785,2019-07-31 08:53:00-03:00,2019-07-31 09:30:00-03:00,,7.06,,,,26.36,,21.9,0,80.0,0,20.0
9834,2019,7,31,PE / Î-P-É,Basin Head,Across Lagoon,46.384835,-62.109143,2019-07-31 08:33:00-03:00,2019-07-31 08:50:00-03:00,,7.18,,,,27.07,,21.4,0,25.0,0,75.0
9832,2019,7,31,PE / Î-P-É,Basin Head,Across Slipway,46.382572,-62.110019,2019-07-31 08:05:00-03:00,2019-07-31 08:30:00-03:00,,7.24,,,,27.04,,21.0,0,25.0,0,75.0
9831,2019,7,31,PE / Î-P-É,Basin Head,Slipway,46.383134,-62.11238,2019-07-31 07:40:00-03:00,2019-07-31 08:00:00-03:00,,7.42,,,,26.07,,21.0,0,50.0,0,50.0
9984,2019,7,25,NB / N-B,Eel Ground,Eel Ground,46.9639,-65.62628,2019-07-25 12:00:00-03:00,2019-07-25 13:00:00-03:00,,8.92,,,,3.19,,23.0,20.0,0,40.0,40.0
9982,2019,7,25,NB / N-B,Eel Ground,Strawberry Marsh,46.98624,-65.57426,2019-07-25 11:30:00-03:00,2019-07-25 11:55:00-03:00,,8.05,,,,6.11,,22.6,60.0,0,40.0,0
9985,2019,7,25,NB / N-B,Eel Ground,Wilson Point,46.96419,-65.59513,2019-07-25 10:30:00-03:00,2019-07-25 11:00:00-03:00,,8.34,,,,4.09,,22.7,0,0,30.0,70.0
9986,2019,7,25,NB / N-B,Eel Ground,South Esk,46.95805,-65.62209,2019-07-25 09:30:00-03:00,2019-07-25 10:12:00-03:00,,8.38,,,,3.0,,22.6,30.0,0,40.0,30.0
9983,2019,7,25,NB / N-B,Eel Ground,Anderson's Bridge,46.96733,-65.59996,2019-07-25 00:00:00-03:00,2019-07-25 00:00:00-03:00,,,,,,,,,0,0,0,0
10001,2019,7,24,PE / Î-P-É,Souris,New Zealand rd. (10%),46.374493,-62.292103,2019-07-24 11:30:00-03:00,2019-07-24 12:30:00-03:00,,16.25,,,,24.39,,23.5,10.0,40.0,0,50.0
10000,2019,7,24,PE / Î-P-É,Souris,Cahil Lane 10%,46.379258,-62.289264,2019-07-24 10:00:00-03:00,2019-07-24 10:45:00-03:00,,12.69,,,,2.1,,14.8,0,75.0,0,25.0
10002,2019,7,24,PE / Î-P-É,Souris,Causeway East (50%),46.35652,-62.27541,2019-07-24 09:30:00-03:00,2019-07-24 09:55:00-03:00,,7.82,,,,22.66,,20.2,0,5.0,0,95.0
9999,2019,7,24,PE / Î-P-É,Souris,Paul Gallant 50%,46.35741,-62.27969,2019-07-24 08:30:00-03:00,2019-07-24 09:15:00-03:00,,7.96,,,,23.57,,20.4,0,25.0,0,75.0
9998,2019,7,24,PE / Î-P-É,Souris,Joe Carter 100%,46.35015,-62.2796,2019-07-24 08:00:00-03:00,2019-07-24 08:25:00-03:00,,7.5,,,,24.61,,20.0,0,0,0,100.0
10003,2019,7,24,PE / Î-P-É,Souris,Ferry 100%,46.35102,-62.2504,2019-07-24 07:00:00-03:00,2019-07-24 07:55:00-03:00,,7.51,,,,26.55,,18.7,0,0,0,100.0
9863,2019,7,23,PE / Î-P-É,Brackley/Covehead,MacMillan's Point,46.420833333333334,-63.1658333333333,2019-07-23 12:55:00-03:00,2019-07-23 13:30:00-03:00,,,,,,,,,0,10.0,0,90.0
9862,2019,7,23,PE / Î-P-É,Brackley/Covehead,Mary's,46.416111111111114,-63.1655555555556,2019-07-23 12:30:00-03:00,2019-07-23 12:50:00-03:00,,,,,,,,,0,0,0,0
9861,2019,7,23,PE / Î-P-É,Brackley/Covehead,Osprey Point,46.411944444444444,-63.1836111111111,2019-07-23 11:45:00-03:00,2019-07-23 12:20:00-03:00,,,,,,,,,5.0,5.0,0,90.0
9860,2019,7,23,PE / Î-P-É,Brackley/Covehead,Brewster,46.41694444444445,-63.1908333333333,2019-07-23 11:30:00-03:00,2019-07-23 11:40:00-03:00,,,,,,,,,0,5.0,0,95.0
9859,2019,7,23,PE / Î-P-É,Brackley/Covehead,Marcie's,46.422222222222224,-63.1433333333333,2019-07-23 10:30:00-03:00,2019-07-23 11:25:00-03:00,,,,,,,,,10.0,30.0,0,60.0
9858,2019,7,23,PE / Î-P-É,Brackley/Covehead,Golfe Course,46.41305555555556,-63.1166666666667,2019-07-23 10:15:00-03:00,2019-07-23 10:25:00-03:00,,,,,,,,,5.0,0,0,95.0
9868,2019,7,18,NB / N-B,Cape Jourimain,Annes Acres,46.15355,-63.846567,2019-07-18 13:50:00-03:00,2019-07-18 14:30:00-03:00,,7.46,,,,26.77,,23.5,5.0,0,5.0,90.0
9864,2019,7,18,NB / N-B,Cape Jourimain,Cape Tourmentine,46.13285,-63.784783,2019-07-18 13:10:00-03:00,2019-07-18 13:40:00-03:00,,7.96,,,,27.22,,21.8,5.0,0,0,95.0
9866,2019,7,18,NB / N-B,Cape Jourimain,Interpretive Center,46.160933,-63.8128,2019-07-18 11:40:00-03:00,2019-07-18 12:00:00-03:00,,7.49,,,,27.15,,20.7,30.0,0,10.0,60.0
9867,2019,7,18,NB / N-B,Cape Jourimain,Spencer's Point,46.15749,-63.90953,2019-07-18 11:10:00-03:00,2019-07-18 11:30:00-03:00,,6.92,,,,26.2,,24.0,5.0,5.0,0,90.0
9865,2019,7,18,NB / N-B,Cape Jourimain,End of Wharf Rd,46.16837,-63.936214,2019-07-18 10:50:00-03:00,2019-07-18 11:05:00-03:00,,7.3,,,,26.78,,20.7,0,0,0,0
9887,2019,7,17,NS / N-É,Pugwash,Doherty Creek,45.814,-63.659167,2019-07-17 11:45:00-03:00,2019-07-17 12:10:00-03:00,,7.25,,,,25.5,,22.1,0,90.0,0,10.0
9892,2019,7,17,NS / N-É,Pugwash,Mundle's,45.8738,-63.653333,2019-07-17 11:05:00-03:00,2019-07-17 11:20:00-03:00,,7.67,,,,27.05,,19.6,5.0,0,5.0,90.0
9889,2019,7,17,NS / N-É,Pugwash,Crescent Beach,45.8547,-63.66575,2019-07-17 10:33:00-03:00,2019-07-17 10:50:00-03:00,,7.5,,,,26.02,,20.6,20.0,0,0,80.0
9888,2019,7,17,NS / N-É,Pugwash,Seagull Parking,45.845167000000004,-63.66395,2019-07-17 10:14:00-03:00,2019-07-17 10:30:00-03:00,,7.4,,,,25.7,,21.4,5.0,30.0,0,65.0
9890,2019,7,17,NS / N-É,Pugwash,Brickyard,45.85025,-63.66695,2019-07-17 09:45:00-03:00,2019-07-17 10:05:00-03:00,,7.92,,,,26.56,,20.0,25.0,0,25.0,50.0
9891,2019,7,17,NS / N-É,Pugwash,Pagweak Camp,45.853717,-63.675933,2019-07-17 09:20:00-03:00,2019-07-17 09:35:00-03:00,,7.71,,,,26.64,,19.6,30.0,5.0,30.0,35.0
9897,2019,7,16,NB / N-B,Lameque,Roger Noel,47.782426,-64.641109,2019-07-16 15:00:00-03:00,2019-07-16 15:30:00-03:00,,11.56,,,,23.58,,24.0,30.0,40.0,30.0,0
9895,2019,7,16,NB / N-B,Lameque,Eco Parc,47.799472,-64.65711,2019-07-16 12:30:00-03:00,2019-07-16 14:10:00-03:00,,12.02,,,,23.72,,25.4,15.0,10.0,10.0,65.0
10049,2019,7,16,PE / Î-P-É,Dunk River,Olscamp Lane 100%,46.370926,-63.801073,2019-07-16 12:15:00-03:00,2019-07-16 13:00:00-03:00,,8.85,,,,26.82,,21.2,40.0,0,0,60.0
9894,2019,7,16,NB / N-B,Lameque,Chrysler 67,47.80085,-64.664486,2019-07-16 11:30:00-03:00,2019-07-16 12:25:00-03:00,,,,,,22.7,,23.6,25.0,5.0,20.0,50.0
10048,2019,7,16,PE / Î-P-É,Dunk River,Hurd's Point road 50%,46.349109,-63.762092,2019-07-16 11:30:00-03:00,2019-07-16 12:10:00-03:00,,9.06,,,,25.91,,20.8,50.0,10.0,0,40.0
10047,2019,7,16,PE / Î-P-É,Dunk River,Woodside Shore rd 10%,46.34849,-63.729185,2019-07-16 10:45:00-03:00,2019-07-16 11:25:00-03:00,,9.64,,,,20.24,,21.63,10.0,10.0,0,80.0
9893,2019,7,16,NB / N-B,Lameque,Chemin Duclos,47.785525,-64.684277,2019-07-16 10:30:00-03:00,2019-07-16 11:20:00-03:00,,12.0,,,,24.05,,21.9,0,20.0,0,80.0
10052,2019,7,16,PE / Î-P-É,Dunk River,Staverts Shore 10%,46.357944,-63.731488,2019-07-16 10:00:00-03:00,2019-07-16 10:45:00-03:00,,9.3,,,,21.36,,21.4,70.0,0,0,30.0
10051,2019,7,16,PE / Î-P-É,Dunk River,Baker's Launch 50%,46.369117,-63.755742,2019-07-16 09:30:00-03:00,2019-07-16 09:55:00-03:00,,9.25,,,,25.43,,20.8,20.0,0,0,80.0
10050,2019,7,16,PE / Î-P-É,Dunk River,Bayside road 100%,46.383017,-63.762294,2019-07-16 09:00:00-03:00,2019-07-16 09:25:00-03:00,,8.6,,,,25.72,,19.7,20.0,0,0,80.0
9896,2019,7,16,NB / N-B,Lameque,Irving,47.788011,-64.63752,2019-07-16 02:20:00-03:00,2019-07-16 02:55:00-03:00,,12.64,,,,21.53,,27.8,25.0,0,10.0,65.0
9989,2019,7,15,NS / N-É,Tatamagouche,Hamelton Lane,45.760967,-63.188167,2019-07-15 13:00:00-03:00,2019-07-15 13:30:00-03:00,,8.74,,,,27.44,,19.7,40.0,35.0,15.0,10.0
9857,2019,7,15,NB / N-B,Bouctouche,Route 11,46.462419,-64.726601,2019-07-15 12:25:00-03:00,2019-07-15 13:10:00-03:00,,,,,,,,,15.0,25.0,10.0,50.0
9987,2019,7,15,NS / N-É,Tatamagouche,Cape John,45.79205,-63.103233,2019-07-15 12:15:00-03:00,2019-07-15 12:35:00-03:00,,8.53,,,,26.56,,20.8,40.0,0,40.0,20.0
9988,2019,7,15,NS / N-É,Tatamagouche,Rollie's,45.75675,-63.084417,2019-07-15 11:30:00-03:00,2019-07-15 12:10:00-03:00,,8.35,,,,22.26,,20.1,40.0,30.0,30.0,0
9856,2019,7,15,NB / N-B,Bouctouche,Pub by the bridge,46.471865,-64.719819,2019-07-15 11:19:00-03:00,2019-07-15 12:00:00-03:00,,,,,,,,,25.0,5.0,10.0,60.0
9990,2019,7,15,NS / N-É,Tatamagouche,Tim Horton,45.735417,-63.318383,2019-07-15 11:00:00-03:00,2019-07-15 11:25:00-03:00,,8.25,,,,26.18,,20.7,0,0,100.0,0
9854,2019,7,15,NB / N-B,Bouctouche,Info Center,46.471729,-64.714365,2019-07-15 10:30:00-03:00,2019-07-15 11:15:00-03:00,,,,,,,,,10.0,15.0,0,75.0
9991,2019,7,15,NS / N-É,Tatamagouche,Island Road,45.756033,-63.339,2019-07-15 10:15:00-03:00,2019-07-15 10:55:00-03:00,,,,,,,,,30.0,0,0,70.0
9855,2019,7,15,NB / N-B,Bouctouche,Behind the takeout,46.469231,-64.714104,2019-07-15 09:45:00-03:00,2019-07-15 10:25:00-03:00,,7.28,,,,16.34,,20.0,0,5.0,0,95.0
9992,2019,7,15,NS / N-É,Tatamagouche,Malagash Centre,45.77285,-63.305167,2019-07-15 09:30:00-03:00,2019-07-15 10:10:00-03:00,,8.33,,,,27.89,,17.4,30.0,0,0,70.0
9853,2019,7,15,NB / N-B,Bouctouche,Marina,46.475972,-64.710486,2019-07-15 09:10:00-03:00,2019-07-15 09:40:00-03:00,,6.45,,,,21.15,,20.2,0,10.0,0,90.0
10030,2019,7,11,PE / Î-P-É,Winter River,Sunset Lane 100%,46.380017,-63.00635,2019-07-11 14:15:00-03:00,2019-07-11 15:05:00-03:00,,9.8,,,,24.96,,24.6,50.0,0,0,50.0
10032,2019,7,11,PE / Î-P-É,Winter River,Court's Island road 50%,46.37772,-63.02224,2019-07-11 13:45:00-03:00,2019-07-11 14:05:00-03:00,,16.32,,,,24.21,,27.1,0,0,10.0,90.0
10027,2019,7,11,PE / Î-P-É,Winter River,Pleasant Grove road 10%,46.37803,-63.057578,2019-07-11 12:30:00-03:00,2019-07-11 13:30:00-03:00,,15.25,,,,3.38,,20.7,0,50.0,0,50.0
10028,2019,7,11,PE / Î-P-É,Winter River,Bald Eagle Lane 10%,46.376779,-63.05252,2019-07-11 11:00:00-03:00,2019-07-11 12:15:00-03:00,,17.01,,,,9.6,,19.5,0,60.0,0,40.0
10031,2019,7,11,PE / Î-P-É,Winter River,White Sickle 50%,46.384027,-63.032463,2019-07-11 10:00:00-03:00,2019-07-11 10:55:00-03:00,,11.1,,,,21.18,,21.0,30.0,0,0,70.0
10029,2019,7,11,PE / Î-P-É,Winter River,Queen's Point road 100%,46.390168,-63.004063,2019-07-11 09:15:00-03:00,2019-07-11 09:55:00-03:00,,8.15,,,,26.42,,18.8,0,10.0,0,90.0
10008,2019,7,10,PE / Î-P-É,Wheatley,Kingfisher Lane 10%,46.387872,-63.268845,2019-07-10 13:30:00-03:00,2019-07-10 14:15:00-03:00,,18.15,,,,12.23,,21.5,0,40.0,0,60.0
10009,2019,7,10,PE / Î-P-É,Wheatley,Cameron Lane 10%,46.38974,-63.270994,2019-07-10 12:45:00-03:00,2019-07-10 13:15:00-03:00,,18.36,,,,18.71,,24.9,0,10.0,0,90.0
9851,2019,7,10,NS / N-É,Cheticamp,Fiset Brook,46.598533,-61.022583,2019-07-10 12:00:00-03:00,2019-07-10 12:30:00-03:00,,11.87,,,,19.05,,19.6,25.0,0,25.0,50.0
10011,2019,7,10,PE / Î-P-É,Wheatley,Grand Pere Point road 50%,46.404868,-63.253044,2019-07-10 11:45:00-03:00,2019-07-10 12:35:00-03:00,,12.55,,,,24.44,,22.3,0,20.0,0,80.0
9850,2019,7,10,NS / N-É,Cheticamp,Pointe a Cochon,46.615083,-61.0237,2019-07-10 11:15:00-03:00,2019-07-10 12:00:00-03:00,,9.76,,,,26.95,,19.5,30.0,65.0,5.0,0
10014,2019,7,10,PE / Î-P-É,Wheatley,Grand  Pere Point road 100%,46.411164,-63.245782,2019-07-10 11:00:00-03:00,2019-07-10 11:35:00-03:00,,10.4,,,,24.36,,22.1,0,50.0,0,50.0
9849,2019,7,10,NS / N-É,Cheticamp,Wharf,463734.9,610057.0,2019-07-10 10:30:00-03:00,2019-07-10 11:00:00-03:00,,10.14,,,,26.97,,17.9,40.0,0,40.0,20.0
10013,2019,7,10,PE / Î-P-É,Wheatley,Sunset Drive 100%,46.405922,-63.223712,2019-07-10 09:30:00-03:00,2019-07-10 10:05:00-03:00,,8.14,,,,18.47,,20.9,20.0,0,0,80.0
10010,2019,7,10,PE / Î-P-É,Wheatley,Wharf at the end of Camp road 50%,46.403786,-63.242724,2019-07-10 09:00:00-03:00,2019-07-10 10:20:00-03:00,,11.5,,,,21.34,,17.9,0,40.0,0,60.0
9852,2019,7,10,NS / N-É,Cheticamp,Gretchen Beach,46.619467,-61.026367,2019-07-10 01:00:00-03:00,2019-07-10 01:30:00-03:00,,10.83,,,,26.88,,19.1,20.0,0,60.0,20.0
9846,2019,7,9,NS / N-É,Mabou,MacPhee's Point,46.082867,-61.441933,2019-07-09 12:45:00-03:00,2019-07-09 13:15:00-03:00,,19.06,,,,25.36,,19.6,30.0,10.0,30.0,30.0
9844,2019,7,9,NS / N-É,Mabou,Gillis Cove,46.08585,-61.458805,2019-07-09 12:00:00-03:00,2019-07-09 12:30:00-03:00,,8.32,,,,25.63,,18.3,40.0,20.0,40.0,0
9843,2019,7,9,NS / N-É,Mabou,MacLean's Point,46.07815,-61.455567,2019-07-09 11:30:00-03:00,2019-07-09 12:00:00-03:00,,8.61,,,,24.71,,19.6,0,0,0,0
9845,2019,7,9,NS / N-É,Mabou,Goose Point,46.06671,-61.427544,2019-07-09 10:45:00-03:00,2019-07-09 11:15:00-03:00,,8.08,,,,19.72,,20.7,10.0,10.0,0,80.0
9847,2019,7,9,NS / N-É,Mabou,Murphy's Point,46.07235,-61.413583,2019-07-09 10:15:00-03:00,2019-07-09 10:45:00-03:00,,8.56,,,,20.62,,20.7,10.0,10.0,70.0,10.0
9848,2019,7,9,NS / N-É,Mabou,Priest Point,46.073633,-61.405183,2019-07-09 09:45:00-03:00,2019-07-09 10:15:00-03:00,,8.75,,,,16.36,,19.8,40.0,0,40.0,20.0
10060,2019,7,8,NB / N-B,Cocagne,Cocagne Marina,46.332469,-64.624657,2019-07-08 13:15:00-03:00,2019-07-08 13:45:00-03:00,,8.05,,,,22.88,,22.4,10.0,15.0,5.0,70.0
10061,2019,7,8,NB / N-B,Cocagne,Lighthouse,46.335807,-64.615219,2019-07-08 12:15:00-03:00,2019-07-08 13:00:00-03:00,,8.61,,,,22.61,,21.9,10.0,0,0,90.0
10064,2019,7,8,NB / N-B,Cocagne,Marina Beach Cape,46.35647,-64.573946,2019-07-08 11:15:00-03:00,2019-07-08 12:05:00-03:00,,7.73,,,,23.7,,21.9,10.0,0,0,90.0
10062,2019,7,8,NB / N-B,Cocagne,Gauvin Beach,46.34102,-64.573724,2019-07-08 10:30:00-03:00,2019-07-08 11:10:00-03:00,,8.08,,,,22.48,,21.7,5.0,0,5.0,90.0
10063,2019,7,8,NB / N-B,Cocagne,Chemin Belle-Côte,46.33125,-64.58293,2019-07-08 09:55:00-03:00,2019-07-08 10:20:00-03:00,,8.34,,,,21.77,,21.4,10.0,0,20.0,70.0
10059,2019,7,8,NB / N-B,Cocagne,Breau Road,46.36724,-64.61738,2019-07-08 08:45:00-03:00,2019-07-08 09:40:00-03:00,,9.68,,,,25.27,,21.7,20.0,0,15.0,65.0
10068,2019,7,5,PE / Î-P-É,Malpèque Bay,Beech Point,46.494013,-63.747559001,2019-07-05 14:30:00-03:00,2019-07-05 15:00:00-03:00,,11.79,,,,26.32,,25.8,15.0,0,0,85.0
10069,2019,7,5,PE / Î-P-É,Malpèque Bay,Keirs Shore,46.525798,-63.697348999,2019-07-05 13:50:00-03:00,2019-07-05 14:20:00-03:00,,20.82,,,,25.79,,25.6,0,25.0,0,75.0
10070,2019,7,5,PE / Î-P-É,Malpèque Bay,Montgomery Road,46.559339432,-63.711283524,2019-07-05 13:10:00-03:00,2019-07-05 13:35:00-03:00,,9.66,,,,26.41,,24.3,5.0,0,0,95.0
10067,2019,7,5,PE / Î-P-É,Malpèque Bay,Belmont Park,46.5153,-63.8311,2019-07-05 10:30:00-03:00,2019-07-05 11:15:00-03:00,,9.21,,,,26.96,,20.0,5.0,0,0,95.0
10066,2019,7,5,PE / Î-P-É,Malpèque Bay,Old Ferry Road,46.512100991,-63.888895787,2019-07-05 09:45:00-03:00,2019-07-05 10:15:00-03:00,,7.86,,,,26.38,,20.0,0,10.0,0,90.0
10065,2019,7,5,PE / Î-P-É,Malpèque Bay,Ramsay Farm,46.5862,-63.852168,2019-07-05 09:00:00-03:00,2019-07-05 09:30:00-03:00,,6.69,,,,26.0,,20.0,0,0,0,100.0
9944,2019,7,4,PE / Î-P-É,Mill River,Long Creek,46.763,-64.146667,2019-07-04 14:00:00-03:00,2019-07-04 14:45:00-03:00,,10.44,,,,18.7,,23.5,0,5.0,0,95.0
9943,2019,7,4,PE / Î-P-É,Mill River,Meggison Creek,46.773778,-64.126831,2019-07-04 13:15:00-03:00,2019-07-04 13:55:00-03:00,,9.81,,,,15.57,,23.7,5.0,5.0,0,90.0
9942,2019,7,4,PE / Î-P-É,Mill River,Boat Launch,46.780395,-64.112115,2019-07-04 12:30:00-03:00,2019-07-04 13:10:00-03:00,,9.81,,,,15.85,,22.9,50.0,5.0,5.0,40.0
9941,2019,7,4,PE / Î-P-É,Mill River,Waterview Rd.,46.760927,-64.12676,2019-07-04 11:00:00-03:00,2019-07-04 11:45:00-03:00,,9.19,,,,13.59,,21.1,15.0,0,15.0,70.0
9940,2019,7,4,PE / Î-P-É,Mill River,Al Peter's,46.758934,-64.141007,2019-07-04 10:15:00-03:00,2019-07-04 10:50:00-03:00,,10.69,,,,15.57,,18.9,0,0,0,100.0
9939,2019,7,4,PE / Î-P-É,Mill River,Resort,46.749806,-64.151997,2019-07-04 10:00:00-03:00,2019-07-04 10:05:00-03:00,,,,,,,,,0,0,0,0
9976,2019,7,3,NB / N-B,St-Louis de Kent,Wharf,46.757328,-64.917023,2019-07-03 11:45:00-03:00,2019-07-03 12:45:00-03:00,,9.22,,,,16.43,,18.1,0,0,0,100.0
9981,2019,7,3,NB / N-B,St-Louis de Kent,Park South,46.750968,-64.949386,2019-07-03 11:15:00-03:00,2019-07-03 11:40:00-03:00,,9.31,,,,11.53,,18.2,20.0,20.0,0,60.0
9979,2019,7,3,NB / N-B,St-Louis de Kent,Ch. Ghislain South,46.747258,-64.963693,2019-07-03 10:30:00-03:00,2019-07-03 11:00:00-03:00,,9.01,,,,11.45,,17.4,30.0,0,0,70.0
9980,2019,7,3,NB / N-B,St-Louis de Kent,Park North,46.75123,-64.951922,2019-07-03 09:15:00-03:00,2019-07-03 10:15:00-03:00,,9.02,,,,13.23,,17.3,40.0,0,0,60.0
9978,2019,7,3,NB / N-B,St-Louis de Kent,Pointe a Donatien,46.746883,-64.970356,2019-07-03 00:00:00-03:00,2019-07-03 00:00:00-03:00,,,,,,,,,0,0,0,0
9977,2019,7,3,NB / N-B,St-Louis de Kent,Pointe a Maxime,46.766254,-64.911184,2019-07-03 00:00:00-03:00,2019-07-03 00:00:00-03:00,,,,,,,,,0,0,0,0
9955,2019,7,2,NB / N-B,Tabusintac,Bayshore,47.376278,-64.938145,2019-07-02 14:00:00-03:00,2019-07-02 14:45:00-03:00,,8.41,,,,21.12,,21.3,0,5.0,0,95.0
9962,2019,7,2,NB / N-B,Cap-Pelé,Camp Ta-Wa-Si,46.1827,-64.11454,2019-07-02 13:30:00-03:00,2019-07-02 14:00:00-03:00,,8.73,,,,27.2,,17.5,0,0,80.0,20.0
9954,2019,7,2,NB / N-B,Tabusintac,Left side of wharf,47.341712,-64.965766,2019-07-02 13:10:00-03:00,2019-07-02 13:55:00-03:00,,9.06,,,,1926.0,,21.3,15.0,5.0,20.0,60.0
9961,2019,7,2,NB / N-B,Cap-Pelé,Comeau Point,46.172,-64.14977,2019-07-02 12:30:00-03:00,2019-07-02 12:45:00-03:00,,8.5,,,,26.1,,17.3,0,0,80.0,20.0
9953,2019,7,2,NB / N-B,Tabusintac,Right side of wharf,47.340217,-64.972078,2019-07-02 12:05:00-03:00,2019-07-02 13:05:00-03:00,,8.84,,,,18.9,,20.0,5.0,15.0,0,80.0
9960,2019,7,2,NB / N-B,Cap-Pelé,Harbour Shore Rd.,46.17319,-64.16438,2019-07-02 12:00:00-03:00,2019-07-02 12:25:00-03:00,,8.46,,,,26.24,,16.6,10.0,30.0,0,60.0
9956,2019,7,2,NB / N-B,Tabusintac,Next to bridge,47.331656,-65.009059,2019-07-02 11:10:00-03:00,2019-07-02 12:00:00-03:00,,8.71,,,,16.58,,18.9,0,10.0,0,90.0
9959,2019,7,2,NB / N-B,Cap-Pelé,Tedish River,46.22523,-64.29596,2019-07-02 11:00:00-03:00,2019-07-02 11:30:00-03:00,,8.6,,,,18.8,,16.3,20.0,5.0,5.0,70.0
9952,2019,7,2,NB / N-B,Tabusintac,Cemetary,47.332778,-64.995865,2019-07-02 10:30:00-03:00,2019-07-02 11:05:00-03:00,,7.89,,,,17.0,,18.3,5.0,0,0,95.0
9958,2019,7,2,NB / N-B,Cap-Pelé,Kouchibouguac River,46.21546,-64.36419,2019-07-02 10:30:00-03:00,2019-07-02 10:55:00-03:00,,8.5,,,,22.75,,15.8,0,10.0,0,90.0
9951,2019,7,2,NB / N-B,Tabusintac,Covedell Rd.,47.330701,-64.972889,2019-07-02 09:45:00-03:00,2019-07-02 10:25:00-03:00,,8.27,,,,15.8,,17.7,10.0,0,5.0,85.0
9957,2019,7,2,NB / N-B,Cap-Pelé,Aboujagane River,46.22155,-64.39916,2019-07-02 09:30:00-03:00,2019-07-02 10:20:00-03:00,,8.19,,,,19.95,,15.7,0,30.0,0,70.0
9995,2019,6,28,PE / Î-P-É,Souris,Cahil Lane 10%,46.379258,-62.289264,2019-06-28 12:30:00-03:00,2019-06-28 13:15:00-03:00,,13.62,,,,0.5,,11.6,0,30.0,0,70.0
9996,2019,6,28,PE / Î-P-É,Souris,Causeway East (50%),46.35652,-62.27541,2019-06-28 10:30:00-03:00,2019-06-28 11:30:00-03:00,,8.54,,,,23.7,,14.5,0,10.0,0,90.0
9994,2019,6,28,PE / Î-P-É,Souris,Paul Gallant 50%,46.35741,-62.27969,2019-06-28 09:30:00-03:00,2019-06-28 10:15:00-03:00,,9.61,,,,20.65,,14.9,10.0,20.0,0,70.0
9997,2019,6,28,PE / Î-P-É,Souris,Ferry 100%,46.35102,-62.2504,2019-06-28 08:30:00-03:00,2019-06-28 09:00:00-03:00,,7.75,,,,28.31,,13.3,0,0,0,100.0
9993,2019,6,28,PE / Î-P-É,Souris,Joe Carter 100%,46.35015,-62.2796,2019-06-28 00:00:00-03:00,2019-06-28 00:00:00-03:00,,8.06,,,,26.59,,14.2,0,0,0,100.0
9826,2019,6,27,PE / Î-P-É,Basin Head,Slipway,46.383134,-62.11238,2019-06-27 13:30:00-03:00,2019-06-27 14:15:00-03:00,,9.65,,,,25.74,,15.2,10.0,20.0,0,70.0
9830,2019,6,27,PE / Î-P-É,Basin Head,Opposite House,46.385205,-62.116711,2019-06-27 13:00:00-03:00,2019-06-27 13:45:00-03:00,,10.95,,,,20.46,,15.8,0,40.0,0,60.0
9949,2019,6,27,PE / Î-P-É,Brudenell-Montague,Parker's Point,46.183691,-62.543005,2019-06-27 13:00:00-03:00,2019-06-27 13:20:00-03:00,,8.89,,,,24.63,,15.0,10.0,0,50.0,40.0
9828,2019,6,27,PE / Î-P-É,Basin Head,Small Creek,46.387556,-62.106785,2019-06-27 12:30:00-03:00,2019-06-27 13:00:00-03:00,,10.51,,,,20.95,,15.9,10.0,60.0,0,30.0
9950,2019,6,27,PE / Î-P-É,Brudenell-Montague,Richmond Street,46.181156,-62.539139,2019-06-27 12:15:00-03:00,2019-06-27 12:55:00-03:00,,8.74,,,,27.38,,15.4,15.0,0,5.0,80.0
9829,2019,6,27,PE / Î-P-É,Basin Head,Across Lagoon,46.384835,-62.109143,2019-06-27 11:45:00-03:00,2019-06-27 12:15:00-03:00,,8.6,,,,23.66,,15.6,0,70.0,0,30.0
9948,2019,6,27,PE / Î-P-É,Brudenell-Montague,Island East,46.197824,-62.578086,2019-06-27 11:30:00-03:00,2019-06-27 12:05:00-03:00,,10.69,,,,24.54,,15.5,0,0,0,100.0
9947,2019,6,27,PE / Î-P-É,Brudenell-Montague,Island West,46.197877,-62.578434,2019-06-27 11:10:00-03:00,2019-06-27 11:25:00-03:00,,10.97,,,,27.07,,15.9,0,0,0,100.0
9827,2019,6,27,PE / Î-P-É,Basin Head,Across Slipway,46.382572,-62.110019,2019-06-27 11:00:00-03:00,2019-06-27 11:30:00-03:00,,8.64,,,,24.94,,15.2,0,30.0,0,70.0
9946,2019,6,27,PE / Î-P-É,Brudenell-Montague,Aitken Point,46.172776,-62.547863,2019-06-27 10:15:00-03:00,2019-06-27 11:00:00-03:00,,11.43,,,,27.7,,15.6,0,0,0,0
9945,2019,6,27,PE / Î-P-É,Brudenell-Montague,Wightman's Point,46.163516,-62.532719,2019-06-27 09:50:00-03:00,2019-06-27 10:05:00-03:00,,9.67,,,,27.93,,15.0,5.0,0,0,95.0
9905,2019,6,25,PE / Î-P-É,Pinette,Larson Drive,46.061033,-62.916083,2019-06-25 14:15:00-03:00,2019-06-25 14:45:00-03:00,,10.28,,,,22.68,,17.4,0,5.0,0,95.0
9899,2019,6,25,PE / Î-P-É,Murray River,Sharams Point,46.020309,-62.525012,2019-06-25 12:55:00-03:00,2019-06-25 13:30:00-03:00,,,,,,25.38,,17.2,15.0,0,5.0,80.0
9908,2019,6,25,PE / Î-P-É,Pinette,Harbour,46.058417,-62.928533,2019-06-25 12:40:00-03:00,2019-06-25 13:15:00-03:00,,10.36,,,,26.44,,18.4,0,0,0,0
9898,2019,6,25,PE / Î-P-É,Murray River,Nicolle Cove,46.023203,-62.537107,2019-06-25 12:20:00-03:00,2019-06-25 12:50:00-03:00,,10.7,,,,27.04,,18.1,5.0,30.0,0,65.0
9900,2019,6,25,PE / Î-P-É,Murray River,Machons Point,46.018891,-62.511072,2019-06-25 11:45:00-03:00,2019-06-25 12:15:00-03:00,,10.13,,,,27.32,,16.6,10.0,0,0,90.0
9904,2019,6,25,PE / Î-P-É,Pinette,Causeway North,46.06005,-62.90985,2019-06-25 11:30:00-03:00,2019-06-25 12:00:00-03:00,,9.94,,,,21.69,,19.2,0,10.0,0,90.0
9903,2019,6,25,PE / Î-P-É,Pinette,Causeway South,46.058533,-62.90725,2019-06-25 11:10:00-03:00,2019-06-25 11:25:00-03:00,,9.67,,,,20.13,,17.9,0,0,0,100.0
9901,2019,6,25,PE / Î-P-É,Murray River,Cemetery,46.008167,-62.514202,2019-06-25 11:10:00-03:00,2019-06-25 11:40:00-03:00,,9.03,,,,21.7,,17.6,0,0,0,100.0
9907,2019,6,25,PE / Î-P-É,Pinette,South Branch Wharf,46.053333,-62.9111,2019-06-25 11:00:00-03:00,2019-06-25 11:10:00-03:00,,9.15,,,,2328.0,,17.5,0,10.0,0,90.0
9906,2019,6,25,PE / Î-P-É,Pinette,Park Boat Launch,46.054833,-62.9105,2019-06-25 10:30:00-03:00,2019-06-25 10:55:00-03:00,,10.25,,,,21.98,,16.2,10.0,30.0,60.0,0
9902,2019,6,25,PE / Î-P-É,Murray River,Clows Point,46.048606,-62.52941,2019-06-25 10:05:00-03:00,2019-06-25 11:05:00-03:00,,8.63,,,,24.31,,16.3,5.0,0,0,95.0
9963,2019,6,24,NB / N-B,Miramichi,Burnt Church,47.193236,-65.136361,2019-06-24 13:15:00-03:00,2019-06-24 14:00:00-03:00,,9.26,,,,22.57,,18.1,0,0,0,100.0
9912,2019,6,24,PE / Î-P-É,Enmore,Enman Shore,46.58261,-64.06773,2019-06-24 13:15:00-03:00,2019-06-24 13:45:00-03:00,,7.48,,,,25.53,,20.3,5.0,0,0,95.0
9914,2019,6,24,PE / Î-P-É,Enmore,McGees Field,46.62024,-64.08209,2019-06-24 12:40:00-03:00,2019-06-24 13:10:00-03:00,,7.8,,,,25.6,,18.6,5.0,0,0,95.0
9968,2019,6,24,NB / N-B,Miramichi,Oak Point,47.116738,-65.266799,2019-06-24 12:30:00-03:00,2019-06-24 13:00:00-03:00,,8.6,,,,20.96,,18.5,4.0,0,1.0,95.0
9913,2019,6,24,PE / Î-P-É,Enmore,Coop Road (Dry Wharf),46.59992,-64.07742,2019-06-24 12:20:00-03:00,2019-06-24 12:35:00-03:00,,7.77,,,,25.22,,17.5,15.0,75.0,10.0,0
9966,2019,6,24,NB / N-B,Miramichi,Gordon's wharf,47.079645,-65.393156,2019-06-24 12:04:00-03:00,2019-06-24 12:25:00-03:00,,8.23,,,,10.1,,18.5,10.0,0,0,90.0
9911,2019,6,24,PE / Î-P-É,Enmore,Portage Shore,46.578,-64.05475,2019-06-24 11:30:00-03:00,2019-06-24 12:15:00-03:00,,8.47,,,,21.42,,17.8,0,5.0,10.0,85.0
9967,2019,6,24,NB / N-B,Miramichi,Middle Island,47.057687,-65.426951,2019-06-24 11:15:00-03:00,2019-06-24 12:00:00-03:00,,8.68,,,,4.19,,19.1,10.0,0,0,90.0
9910,2019,6,24,PE / Î-P-É,Enmore,Ed Yeo,46.56501,-64.07073,2019-06-24 10:55:00-03:00,2019-06-24 11:25:00-03:00,,8.04,,,,23.24,,16.6,0,100.0,0,0
9964,2019,6,24,NB / N-B,Miramichi,Dickson Beach,47.07417,-65.36536,2019-06-24 10:45:00-03:00,2019-06-24 11:05:00-03:00,,8.82,,,,7.21,,18.7,0,0,0,100.0
9909,2019,6,24,PE / Î-P-É,Enmore,Higgin's wharf,46.54865,-64.08741,2019-06-24 10:25:00-03:00,2019-06-24 10:50:00-03:00,,7.56,,,,26.21,,16.2,5.0,95.0,0,0
9965,2019,6,24,NB / N-B,Miramichi,Murdock beach,47.074723,-65.33653,2019-06-24 10:15:00-03:00,2019-06-24 10:30:00-03:00,,8.76,,,,8.61,,18.0,60.0,10.0,20.0,10.0
9969,2019,6,24,NB / N-B,Miramichi,Pointe aux Carr,47.077419,-65.207023,2019-06-24 09:30:00-03:00,2019-06-24 10:10:00-03:00,,8.76,,,,13.43,,16.7,5.0,0,0,95.0
10024,2019,6,20,PE / Î-P-É,Winter River,Court's Island road 50%,46.37772,-63.02224,2019-06-20 14:45:00-03:00,2019-06-20 15:45:00-03:00,,11.87,,,,27.0,,22.3,0,50.0,0,50.0
10026,2019,6,20,PE / Î-P-É,Winter River,Sunset Lane 100%,46.380017,-63.00635,2019-06-20 14:00:00-03:00,2019-06-20 14:30:00-03:00,,10.02,,,,26.59,,22.0,0,45.0,5.0,50.0
10023,2019,6,20,PE / Î-P-É,Winter River,White Sickle 50%,46.384027,-63.032463,2019-06-20 12:45:00-03:00,2019-06-20 13:40:00-03:00,,11.77,,,,23.94,,21.9,30.0,10.0,0,60.0
10022,2019,6,20,PE / Î-P-É,Winter River,Bald Eagle Lane 10%,46.376779,-63.05252,2019-06-20 10:45:00-03:00,2019-06-20 11:40:00-03:00,,13.72,,,,21.33,,21.0,0,50.0,0,50.0
10025,2019,6,20,PE / Î-P-É,Winter River,Queen's Point road 100%,46.390168,-63.004063,2019-06-20 09:45:00-03:00,2019-06-20 10:40:00-03:00,,8.13,,,,25.99,,18.6,10.0,10.0,0,80.0
9926,2019,6,19,NB / N-B,Caraquet,Rue Blanchard,47.817719,-64.99786,2019-06-19 12:53:00-03:00,2019-06-19 13:20:00-03:00,,9.54,,,,22.46,,23.1,0,0,0,0
9925,2019,6,19,NB / N-B,Caraquet,Rue Dugas,47.777114,-65.029957,2019-06-19 12:10:00-03:00,2019-06-19 12:20:00-03:00,,8.12,,,,19.72,,21.3,5.0,0,35.0,60.0
9924,2019,6,19,NB / N-B,Caraquet,Rue Foley,47.794929,-64.942717,2019-06-19 11:18:00-03:00,2019-06-19 11:45:00-03:00,,8.78,,,,23.36,,18.0,5.0,0,0,95.0
9923,2019,6,19,NB / N-B,Caraquet,Marina,47.802127,-64.874018,2019-06-19 10:20:00-03:00,2019-06-19 10:43:00-03:00,,9.5,,,,15.5,,16.0,5.0,0,0,95.0
9922,2019,6,19,NB / N-B,Caraquet,Fish Meal,47.807329,-64.857323,2019-06-19 09:48:00-03:00,2019-06-19 10:07:00-03:00,,8.81,,,,24.23,,16.5,20.0,0,0,80.0
9921,2019,6,19,NB / N-B,Caraquet,Pecherie St-Paul,47.808815,-64.849468,2019-06-19 09:15:00-03:00,2019-06-19 09:32:00-03:00,,8.84,,,,23.8,,15.7,50.0,0,25.0,25.0
9920,2019,6,18,NB / N-B,Pokemouche,Centre Plein Air,47.67657,-64.84812,2019-06-18 13:36:00-03:00,2019-06-18 14:40:00-03:00,,12.42,,,,11.72,,23.9,5.0,75.0,0,20.0
9919,2019,6,18,NB / N-B,Pokemouche,Sentier NB,47.67381,-64.8209,2019-06-18 13:05:00-03:00,2019-06-18 13:30:00-03:00,,9.81,,,,10.34,,19.4,15.0,0,5.0,80.0
9918,2019,6,18,NB / N-B,Pokemouche,Chemin Arseneau,47.66008,-64.80486,2019-06-18 12:00:00-03:00,2019-06-18 12:30:00-03:00,,9.08,,,,18.9,,17.3,20.0,5.0,0,75.0
10044,2019,6,18,PE / Î-P-É,Dunk River,Hurd's Point road 50%,46.349109,-63.762092,2019-06-18 11:30:00-03:00,2019-06-18 12:00:00-03:00,,9.58,,,,26.46,,18.1,40.0,0,0,60.0
9917,2019,6,18,NB / N-B,Pokemouche,Pointe des Mazeroles,47.67109,-64.8083,2019-06-18 11:25:00-03:00,2019-06-18 11:55:00-03:00,,9.55,,,,17.7,,16.9,10.0,70.0,0,20.0
9916,2019,6,18,NB / N-B,Pokemouche,Inkerman Ferry,47.67764,-64.81683,2019-06-18 11:00:00-03:00,2019-06-18 11:20:00-03:00,,9.43,,,,12.78,,16.9,10.0,5.0,0,85.0
10043,2019,6,18,PE / Î-P-É,Dunk River,Woodside Shore rd 10%,46.34849,-63.729185,2019-06-18 10:30:00-03:00,2019-06-18 11:15:00-03:00,,10.22,,,,22.49,,20.7,40.0,0,0,60.0
9915,2019,6,18,NB / N-B,Pokemouche,Pointe a Godin,47.68707,-64.8487,2019-06-18 10:10:00-03:00,2019-06-18 10:55:00-03:00,,10.27,,,,7.24,,18.5,40.0,0,10.0,50.0
10045,2019,6,18,PE / Î-P-É,Dunk River,Baker's Launch 50%,46.369117,-63.755742,2019-06-18 09:15:00-03:00,2019-06-18 09:40:00-03:00,,10.24,,,,21.29,,18.5,30.0,0,0,70.0
9875,2019,6,17,PE / Î-P-É,Trout River,Thymehill,46.44482,-63.47322,2019-06-17 16:00:00-03:00,2019-06-17 16:25:00-03:00,,13.03,,,,23.11,,20.9,0,5.0,0,95.0
9880,2019,6,17,PE / Î-P-É,Trout River,Douglas Road,46.45854,-63.46931,2019-06-17 14:40:00-03:00,2019-06-17 15:50:00-03:00,,13.52,,,,20.92,,22.2,0,0,0,0
9879,2019,6,17,PE / Î-P-É,Trout River,Inn on the Pier,46.46921,-63.45003,2019-06-17 13:55:00-03:00,2019-06-17 14:30:00-03:00,,11.69,,,,25.71,,21.1,20.0,5.0,20.0,55.0
9878,2019,6,17,PE / Î-P-É,Trout River,Trout River Road,46.458182,-63.461426,2019-06-17 13:15:00-03:00,2019-06-17 13:50:00-03:00,,10.25,,,,21.58,,21.4,0,0,0,100.0
9877,2019,6,17,PE / Î-P-É,Trout River,Across Hinton Lane,462642.4,632809.9,2019-06-17 11:25:00-03:00,2019-06-17 12:30:00-03:00,,9.98,,,,21.57,,19.6,0,5.0,0,95.0
9876,2019,6,17,PE / Î-P-É,Trout River,Trout River Park,46.42157,-63.44011,2019-06-17 10:25:00-03:00,2019-06-17 11:20:00-03:00,,10.47,,,,6.78,,17.9,0,15.0,0,85.0
9881,2019,6,14,NS / N-É,Antigonish,Naveen Lane,45.635338,-61.904481,2019-06-14 13:30:00-03:00,2019-06-14 14:30:00-03:00,,8.02,,,,13.55,,18.4,5.0,85.0,0,10.0
9882,2019,6,14,NS / N-É,Antigonish,Aveline Ave,45.667195,-61.884295,2019-06-14 12:45:00-03:00,2019-06-14 13:15:00-03:00,,9.24,,,,22.04,,14.4,30.0,0,30.0,40.0
9886,2019,6,14,NS / N-É,Antigonish,Dunn's Beach,45.68314,-61.87121,2019-06-14 12:00:00-03:00,2019-06-14 12:25:00-03:00,,9.54,,,,27.01,,12.9,5.0,0,5.0,90.0
9973,2019,6,14,NB / N-B,Scoudouc River,Fish Plant,46.219115,-64.553316,2019-06-14 11:30:00-03:00,2019-06-14 12:30:00-03:00,,8.59,,,,22.85,,16.6,0,30.0,10.0,60.0
9974,2019,6,14,NB / N-B,Scoudouc River,Bridge out,46.219562,-64.553471,2019-06-14 11:00:00-03:00,2019-06-14 11:25:00-03:00,,7.86,,,,17.12,,16.7,0,0,0,100.0
9884,2019,6,14,NS / N-É,Antigonish,Seabright,45.67237,-61.90695,2019-06-14 11:00:00-03:00,2019-06-14 11:30:00-03:00,,9.26,,,,26.55,,12.8,35.0,0,35.0,30.0
9972,2019,6,14,NB / N-B,Scoudouc River,Rue Dock,46.220777,-64.552474,2019-06-14 10:30:00-03:00,2019-06-14 10:55:00-03:00,,7.5,,,,22.91,,16.0,0,0,0,100.0
9971,2019,6,14,NB / N-B,Scoudouc River,Breakwater,46.217178,-64.551758,2019-06-14 10:15:00-03:00,2019-06-14 10:25:00-03:00,,8.17,,,,21.58,,16.3,0,10.0,0,90.0
9883,2019,6,14,NS / N-É,Antigonish,Eden,45.659083,-61.909083,2019-06-14 10:00:00-03:00,2019-06-14 10:40:00-03:00,,9.17,,,,15.4,,15.8,0,0,0,0
9970,2019,6,14,NB / N-B,Scoudouc River,Gazibo,46.21465,-64.552165,2019-06-14 09:45:00-03:00,2019-06-14 10:10:00-03:00,,7.07,,,,23.75,,15.6,0,30.0,0,70.0
9975,2019,6,14,NB / N-B,Scoudouc River,Lobster,46.218937,-64.554866,2019-06-14 09:15:00-03:00,2019-06-14 09:40:00-03:00,,7.89,,,,20.3,,15.6,0,0,0,100.0
9885,2019,6,14,NS / N-É,Antigonish,Terra Tory Drive,45.65924,-61.913261,2019-06-14 09:10:00-03:00,2019-06-14 09:50:00-03:00,,9.19,,,,13.97,,15.9,0,0,0,0
9873,2019,6,13,NS / N-É,Pictou,Boat Harbour,45.67576,-62.63784,2019-06-13 16:20:00-03:00,2019-06-13 16:45:00-03:00,,5.01,,,,3.08,,23.4,10.0,0,0,90.0
9871,2019,6,13,NS / N-É,Pictou,Power Plant,45.62596,-62.64932,2019-06-13 15:15:00-03:00,2019-06-13 16:00:00-03:00,,8.42,,,,6.41,,28.3,5.0,50.0,0,45.0
9869,2019,6,13,NS / N-É,Pictou,Boggs Brook,45.64062,-62.72919,2019-06-13 13:45:00-03:00,2019-06-13 15:00:00-03:00,,15.23,,,,4.15,,23.3,0,15.0,0,85.0
10006,2019,6,13,PE / Î-P-É,Wheatley,Grand Pere Point road 50%,46.404868,-63.253044,2019-06-13 11:30:00-03:00,2019-06-13 12:15:00-03:00,,16.4,,,,23.5,,20.7,0,50.0,0,50.0
9870,2019,6,13,NS / N-É,Pictou,Lyon's Brook,45.67583,-62.74132,2019-06-13 11:05:00-03:00,2019-06-13 12:05:00-03:00,,9.31,,,,6.49,,19.9,35.0,0,35.0,30.0
10007,2019,6,13,PE / Î-P-É,Wheatley,Grand Pere Point road 100%,46.411164,-63.245782,2019-06-13 10:30:00-03:00,2019-06-13 11:10:00-03:00,,18.8,,,,23.16,,19.5,0,100.0,0,0
9872,2019,6,13,NS / N-É,Pictou,East Side Causeway,45.669717,-62.7275,2019-06-13 10:15:00-03:00,2019-06-13 11:00:00-03:00,,9.43,,,,23.37,,14.9,10.0,0,0,90.0
10012,2019,6,13,PE / Î-P-É,Wheatley,Wharf at the end of Camp road 50%,46.403786,-63.242724,2019-06-13 10:15:00-03:00,2019-06-13 10:55:00-03:00,,9.33,,,,23.58,,20.7,0,40.0,0,60.0
9874,2019,6,13,NS / N-É,Pictou,Marina,45.6829,-62.691,2019-06-13 09:27:00-03:00,2019-06-13 10:05:00-03:00,,9.44,,,,23.22,,15.1,30.0,0,30.0,40.0
9938,2019,6,11,PE / Î-P-É,Hillsborough,Aptose Road,46.219466,-63.113672,2019-06-11 13:20:00-03:00,2019-06-11 13:50:00-03:00,,8.75,,,,27.52,,20.3,0,0,0,100.0
9937,2019,6,11,PE / Î-P-É,Hillsborough,Horton Park,46.242433,-63.090807999,2019-06-11 12:33:00-03:00,2019-06-11 12:55:00-03:00,,8.82,,,,26.58,,19.3,0,5.0,0,95.0
9936,2019,6,11,PE / Î-P-É,Hillsborough,Hillsborough Hospital,46.253637326,-63.098152896,2019-06-11 11:40:00-03:00,2019-06-11 12:20:00-03:00,,8.19,,,,26.03,,17.0,0,10.0,0,90.0
9935,2019,6,11,PE / Î-P-É,Hillsborough,Queen Elizabeth Park,46.2482,-63.1535,2019-06-11 10:35:00-03:00,2019-06-11 11:30:00-03:00,,9.33,,,,26.37,,16.8,0,10.0,0,90.0
9934,2019,6,11,PE / Î-P-É,Hillsborough,West River/Causeway,46.188544,-63.232663,2019-06-11 10:00:00-03:00,2019-06-11 10:25:00-03:00,,10.65,,,,26.25,,16.2,0,0,0,100.0
9933,2019,6,11,PE / Î-P-É,Hillsborough,Rocky Point,46.20736,-63.14716,2019-06-11 09:30:00-03:00,2019-06-11 09:55:00-03:00,,11.12,,,,0.36,,14.6,0,0,0,100.0
9932,2019,6,10,NB / N-B,Shediac River,Albert Gallant,46.279518,-64.572578,2019-06-10 12:55:00-03:00,2019-06-10 13:30:00-03:00,,8.25,,,,23.98,,18.5,0,0,0,100.0
9931,2019,6,10,NB / N-B,Shediac River,Indian Point,46.273319,-64.56477,2019-06-10 12:15:00-03:00,2019-06-10 12:45:00-03:00,,9.4,,,,24.24,,19.0,0,0,0,0
9930,2019,6,10,NB / N-B,Shediac River,Seagull,46.270801,-64.574252,2019-06-10 11:30:00-03:00,2019-06-10 12:10:00-03:00,,8.36,,,,23.18,,19.1,0,0,0,100.0
9928,2019,6,10,NB / N-B,Shediac River,Wetland,46.274617,-64.571954,2019-06-10 11:00:00-03:00,2019-06-10 11:25:00-03:00,,8.52,,,,22.12,,18.5,0,0,0,100.0
9929,2019,6,10,NB / N-B,Shediac River,Bridge in,46.273467,-64.576255,2019-06-10 09:55:00-03:00,2019-06-10 10:20:00-03:00,,8.0,,,,23.05,,17.3,0,0,0,100.0
9927,2019,6,10,NB / N-B,Shediac River,Chez Leo,46.273139,-64.575275,2019-06-10 09:20:00-03:00,2019-06-10 09:50:00-03:00,,8.32,,,,22.63,,16.9,13.0,45.0,2.0,40.0
9805,2018,8,30,NB / N-B,Eel Ground,Eel Ground,46.9639,-65.62628,2018-08-30 13:00:00-03:00,2018-08-30 13:30:00-03:00,,7.66,,,,7.88,,23.6,40.0,0,20.0,40.0
9808,2018,8,30,NB / N-B,Eel Ground,South Esk,46.95805,-65.62209,2018-08-30 12:30:00-03:00,2018-08-30 12:45:00-03:00,,8.14,,,,6.76,,23.4,30.0,0,50.0,20.0
9807,2018,8,30,NB / N-B,Eel Ground,Wilson Point,46.96419,-65.59513,2018-08-30 12:15:00-03:00,2018-08-30 12:25:00-03:00,,7.57,,,,9.51,,22.9,50.0,0,20.0,30.0
9804,2018,8,30,NB / N-B,Eel Ground,Anderson's Bridge,46.96733,-65.59996,2018-08-30 11:45:00-03:00,2018-08-30 12:15:00-03:00,,7.72,,,,9.32,,23.5,30.0,30.0,0,40.0
9803,2018,8,30,NB / N-B,Eel Ground,Strawberry Marsh,46.98624,-65.57426,2018-08-30 11:15:00-03:00,2018-08-30 11:40:00-03:00,,7.0,,,,13.01,,22.7,40.0,0,50.0,10.0
9806,2018,8,30,NB / N-B,Eel Ground,Nelson Road,46.96865,-65.55928,2018-08-30 10:15:00-03:00,2018-08-30 11:00:00-03:00,,6.3,,,,12.04,,22.4,40.0,0,30.0,30.0
9651,2018,6,30,NS / N-É,Mabou,MacPhee's Point,46.082867,-61.441933,2018-06-30 14:22:00-03:00,2018-06-30 14:55:00-03:00,,11.33,,,,19.19,,19.7,40.0,0,30.0,30.0
9760,2018,6,30,PE / Î-P-É,Malpèque Bay,Beech Point,46.494013,-63.747559001,2018-06-30 14:00:00-03:00,2018-06-30 14:45:00-03:00,,5.74,,,,26.88,,25.5,30.0,10.0,0,60.0
9649,2018,6,30,NS / N-É,Mabou,Gillis Cove,46.08585,-61.458805,2018-06-30 13:50:00-03:00,2018-06-30 14:17:00-03:00,,10.29,,,,12.24,,20.8,30.0,30.0,30.0,10.0
9654,2018,6,30,NS / N-É,Pictou,Boggs Brook,45.64062,-62.72919,2018-06-30 13:30:00-03:00,2018-06-30 14:00:00-03:00,,9.87,,,,16.54,,26.0,0,75.0,25.0,0
9744,2018,6,30,PE / Î-P-É,Brackley/Covehead,MacMillan's Point,46.420833333333334,-63.1658333333333,2018-06-30 13:30:00-03:00,2018-06-30 14:15:00-03:00,,13.49,,,,26.0,,23.8,0,0,0,0
9703,2018,6,30,PE / Î-P-É,Summerside,Stavert Point Road,46.357944,-63.731488,2018-06-30 13:30:00-03:00,2018-06-30 14:10:00-03:00,,10.98,,,,24.43,,23.9,60.0,0,20.0,20.0
9648,2018,6,30,NS / N-É,Mabou,MacLean's Point,46.07815,-61.455567,2018-06-30 13:22:00-03:00,2018-06-30 13:45:00-03:00,,10.75,,,,15.93,,20.3,50.0,0,0,50.0
9761,2018,6,30,PE / Î-P-É,Malpèque Bay,Keirs Shore,46.525798,-63.697348999,2018-06-30 13:15:00-03:00,2018-06-30 13:55:00-03:00,,8.16,,,,26.34,,25.0,5.0,0,15.0,80.0
9797,2018,6,30,NB / N-B,Caraquet,Rue Blanchard,47.817719,-64.99786,2018-06-30 13:12:00-03:00,2018-06-30 13:30:00-03:00,,11.9,,,,24.76,,24.2,15.0,10.0,0,75.0
9657,2018,6,30,NS / N-É,Pictou,East Side Causeway,45.669717,-62.7275,2018-06-30 13:00:00-03:00,2018-06-30 13:25:00-03:00,,9.92,,,,22.26,,21.8,25.0,0,0,75.0
9740,2018,6,30,PE / Î-P-É,Brackley/Covehead,Marcie's,46.422222222222224,-63.1433333333333,2018-06-30 13:00:00-03:00,2018-06-30 13:25:00-03:00,,10.14,,,,20.9,,25.5,10.0,0,0,90.0
9774,2018,6,30,NB / N-B,Cape Jourimain,Murray Beach,46.18005,-63.985433,2018-06-30 13:00:00-03:00,2018-06-30 13:30:00-03:00,,10.25,,,,26.76,,21.8,0,0,40.0,60.0
9630,2018,6,30,PE / Î-P-É,Basin Head,Slipway,46.383134,-62.11238,2018-06-30 12:50:00-03:00,2018-06-30 01:30:00-03:00,,10.88,,,,26.47,,12.04,0,50.0,0,50.0
9650,2018,6,30,NS / N-É,Mabou,Goose Point,46.06671,-61.427544,2018-06-30 12:40:00-03:00,2018-06-30 13:17:00-03:00,,11.25,,,,18.03,,19.9,25.0,25.0,0,50.0
9702,2018,6,30,PE / Î-P-É,Summerside,Bakers Launch,46.369117,-63.755742,2018-06-30 12:30:00-03:00,2018-06-30 13:15:00-03:00,,9.92,,,,24.71,,25.0,20.0,0,0,80.0
9739,2018,6,30,PE / Î-P-É,Brackley/Covehead,Golfe Course,46.41305555555556,-63.1166666666667,2018-06-30 12:30:00-03:00,2018-06-30 12:55:00-03:00,,9.44,,,,23.5,,25.0,10.0,0,0,90.0
9655,2018,6,30,NS / N-É,Pictou,Lyon's Brook,45.67583,-62.74132,2018-06-30 12:30:00-03:00,2018-06-30 12:50:00-03:00,,9.79,,,,15.69,,25.5,40.0,0,40.0,20.0
9762,2018,6,30,PE / Î-P-É,Malpèque Bay,Montgomery Road,46.559339432,-63.711283524,2018-06-30 12:30:00-03:00,2018-06-30 13:05:00-03:00,,7.82,,,,26.77,,25.3,10.0,0,30.0,60.0
9796,2018,6,30,NB / N-B,Caraquet,Rue Dugas,47.777114,-65.029957,2018-06-30 12:30:00-03:00,2018-06-30 12:47:00-03:00,,9.9,,,,22.52,,25.6,15.0,5.0,0,80.0
9819,2018,6,30,NB / N-B,Néguac,Ile-aux-foins,47.230688,-65.075657,2018-06-30 12:15:00-03:00,2018-06-30 13:00:00-03:00,,9.1,,,,23.85,,23.5,0,30.0,10.0,60.0
9701,2018,6,30,PE / Î-P-É,Summerside,Oyster Launch,46.383956,-63.758716,2018-06-30 12:15:00-03:00,2018-06-30 12:25:00-03:00,,8.7,,,,24.68,,23.7,40.0,0,0,60.0
9659,2018,6,30,NS / N-É,Pictou,Marina,45.6829,-62.691,2018-06-30 12:00:00-03:00,2018-06-30 12:25:00-03:00,,9.7,,,,21.4,,19.7,40.0,0,0,60.0
9666,2018,6,30,NS / N-É,Pugwash,Mundle's,45.8738,-63.653333,2018-06-30 12:00:00-03:00,2018-06-30 12:25:00-03:00,,7.26,,,,27.1,,25.9,10.0,0,0,90.0
9634,2018,6,30,PE / Î-P-É,Basin Head,Opposite House,46.385205,-62.116711,2018-06-30 12:00:00-03:00,2018-06-30 12:45:00-03:00,,8.67,,,,25.95,,18.1,0,60.0,0,40.0
9795,2018,6,30,NB / N-B,Caraquet,Rue Foley,47.794929,-64.942717,2018-06-30 11:54:00-03:00,2018-06-30 12:09:00-03:00,,11.06,,,,24.61,,12.3,5.0,0,0,95.0
9700,2018,6,30,PE / Î-P-É,Summerside,Glover Pt.,46.389143,-63.770298,2018-06-30 11:45:00-03:00,2018-06-30 12:20:00-03:00,,8.82,,,,25.18,,23.9,40.0,0,40.0,20.0
9652,2018,6,30,NS / N-É,Mabou,Murphy's Point,46.07235,-61.413583,2018-06-30 11:45:00-03:00,2018-06-30 12:30:00-03:00,,11.3,,,,14.1,,21.1,10.0,40.0,50.0,0
9661,2018,6,30,NS / N-É,Pugwash,Doherty Creek,45.814,-63.659167,2018-06-30 11:30:00-03:00,2018-06-30 11:55:00-03:00,,7.16,,,,26.42,,25.8,0,80.0,0,20.0
9818,2018,6,30,NB / N-B,Néguac,Ferdinand Road,47.246197,-65.072603,2018-06-30 11:30:00-03:00,2018-06-30 12:05:00-03:00,,7.75,,,,24.23,,22.1,0,15.0,5.0,80.0
9743,2018,6,30,PE / Î-P-É,Brackley/Covehead,Mary's,46.416111111111114,-63.1655555555556,2018-06-30 11:30:00-03:00,2018-06-30 12:20:00-03:00,,9.87,,,,23.62,,22.8,10.0,0,0,90.0
9759,2018,6,30,PE / Î-P-É,Malpèque Bay,Belmont Park,46.5153,-63.8311,2018-06-30 11:15:00-03:00,2018-06-30 12:00:00-03:00,,6.4,,,,27.68,,24.6,0,0,20.0,80.0
9699,2018,6,30,PE / Î-P-É,Summerside,Boardwalk,46.395416,-63.8017,2018-06-30 11:15:00-03:00,2018-06-30 11:40:00-03:00,,9.94,,,,22.96,,25.6,0,0,0,100.0
9653,2018,6,30,NS / N-É,Mabou,Priest Point,46.073633,-61.405183,2018-06-30 11:15:00-03:00,2018-06-30 11:40:00-03:00,,8.75,,,,10.54,,24.0,30.0,10.0,50.0,10.0
9817,2018,6,30,NB / N-B,Néguac,Sullivan Road,47.254983,-65.063167,2018-06-30 11:15:00-03:00,2018-06-30 11:25:00-03:00,,10.2,,,,24.07,,24.7,0,0,0,0
9773,2018,6,30,NB / N-B,Cape Jourimain,Annes Acres,46.15355,-63.846567,2018-06-30 11:00:00-03:00,2018-06-30 11:30:00-03:00,,9.52,,,,26.71,,22.9,0,0,0,100.0
9663,2018,6,30,NS / N-É,Pugwash,Crescent Beach,45.8547,-63.66575,2018-06-30 11:00:00-03:00,2018-06-30 11:25:00-03:00,,7.82,,,,26.25,,23.9,5.0,0,5.0,90.0
9656,2018,6,30,NS / N-É,Pictou,Power Plant,45.62596,-62.64932,2018-06-30 11:00:00-03:00,2018-06-30 11:50:00-03:00,,9.61,,,,9.56,,22.7,60.0,20.0,0,20.0
9635,2018,6,30,PE / Î-P-É,Basin Head,Shambles,46.387051,-62.114297,2018-06-30 11:00:00-03:00,2018-06-30 11:50:00-03:00,,8.14,,,,25.67,,19.3,0,80.0,0,20.0
9816,2018,6,30,NB / N-B,Néguac,McLeod Road,47.263633,-65.04365,2018-06-30 10:45:00-03:00,2018-06-30 11:10:00-03:00,,9.37,,,,16.4,,23.5,0,0,20.0,80.0
9632,2018,6,30,PE / Î-P-É,Basin Head,Small Creek,46.387556,-62.106785,2018-06-30 10:45:00-03:00,2018-06-30 11:00:00-03:00,,7.42,,,,21.84,,20.4,0,70.0,0,30.0
9794,2018,6,30,NB / N-B,Caraquet,Marina,47.802127,-64.874018,2018-06-30 10:41:00-03:00,2018-06-30 11:08:00-03:00,,11.26,,,,24.53,,21.1,0,0,0,100.0
9633,2018,6,30,PE / Î-P-É,Basin Head,Across Lagoon,46.384835,-62.109143,2018-06-30 10:30:00-03:00,2018-06-30 10:40:00-03:00,,7.8,,,,25.76,,18.9,0,50.0,0,50.0
9698,2018,6,30,PE / Î-P-É,Summerside,Linkletter Provincial Park,46.398003,-63.857097,2018-06-30 10:30:00-03:00,2018-06-30 11:05:00-03:00,,7.88,,,,26.24,,23.0,10.0,0,0,90.0
9742,2018,6,30,PE / Î-P-É,Brackley/Covehead,Osprey Point,46.411944444444444,-63.1836111111111,2018-06-30 10:30:00-03:00,2018-06-30 11:20:00-03:00,,10.19,,,,23.94,,24.9,20.0,0,0,80.0
9662,2018,6,30,NS / N-É,Pugwash,Seagull Parking,45.845167000000004,-63.66395,2018-06-30 10:30:00-03:00,2018-06-30 10:55:00-03:00,,6.86,,,,26.74,,25.2,20.0,10.0,0,70.0
9758,2018,6,30,PE / Î-P-É,Malpèque Bay,Old Ferry Road,46.512100991,-63.888895787,2018-06-30 10:15:00-03:00,2018-06-30 11:00:00-03:00,,7.1,,,,26.62,,22.7,0,30.0,0,70.0
9631,2018,6,30,PE / Î-P-É,Basin Head,Across Slipway,46.382572,-62.110019,2018-06-30 10:00:00-03:00,2018-06-30 10:25:00-03:00,,8.22,,,,26.38,,18.0,0,0,0,100.0
9658,2018,6,30,NS / N-É,Pictou,Boat Harbour,45.67576,-62.63784,2018-06-30 10:00:00-03:00,2018-06-30 10:45:00-03:00,,6.9,,,,23.61,,17.3,10.0,10.0,0,80.0
9664,2018,6,30,NS / N-É,Pugwash,Brickyard,45.85025,-63.66695,2018-06-30 10:00:00-03:00,2018-06-30 10:25:00-03:00,,7.29,,,,26.7,,23.0,30.0,10.0,30.0,30.0
9769,2018,6,30,NB / N-B,Cape Jourimain,Cape Tourmentine,46.13285,-63.784783,2018-06-30 10:00:00-03:00,2018-06-30 10:30:00-03:00,,10.16,,,,27.27,,18.4,0,0,0,100.0
9815,2018,6,30,NB / N-B,Néguac,Malpec Road,47.277433,-65.017733,2018-06-30 10:00:00-03:00,2018-06-30 10:30:00-03:00,,8.34,,,,22.91,,24.2,10.0,20.0,0,70.0
9793,2018,6,30,NB / N-B,Caraquet,Fish Meal,47.807329,-64.857323,2018-06-30 09:55:00-03:00,2018-06-30 10:23:00-03:00,,9.27,,,,25.06,,19.7,0,0,0,100.0
9741,2018,6,30,PE / Î-P-É,Brackley/Covehead,Brewster,46.41694444444445,-63.1908333333333,2018-06-30 09:30:00-03:00,2018-06-30 10:15:00-03:00,,11.49,,,,23.62,,25.3,40.0,0,0,60.0
9792,2018,6,30,NB / N-B,Caraquet,Pecherie St-Paul,47.808815,-64.849468,2018-06-30 09:22:00-03:00,2018-06-30 09:42:00-03:00,,11.75,,,,24.94,,19.1,0,0,90.0,10.0
9771,2018,6,30,NB / N-B,Cape Jourimain,Interpretive Center,46.160933,-63.8128,2018-06-30 09:15:00-03:00,2018-06-30 09:30:00-03:00,,10.19,,,,27.15,,18.6,10.0,0,0,90.0
9665,2018,6,30,NS / N-É,Pugwash,Pagweak Camp,45.853717,-63.675933,2018-06-30 09:15:00-03:00,2018-06-30 09:55:00-03:00,,,,,,27.01,,22.5,0,0,30.0,70.0
9757,2018,6,30,PE / Î-P-É,Malpèque Bay,Ramsay Farm,46.5862,-63.852168,2018-06-30 09:15:00-03:00,2018-06-30 10:00:00-03:00,,6.49,,,,26.81,,21.7,10.0,0,0,90.0
9770,2018,6,30,NB / N-B,Cape Jourimain,End of Wharf Rd,46.16837,-63.936214,2018-06-30 00:00:00-03:00,2018-06-30 00:00:00-03:00,,10.24,,,,26.58,,23.7,0,0,0,100.0
9772,2018,6,30,NB / N-B,Cape Jourimain,Spencer's Point,46.15749,-63.90953,2018-06-30 00:00:00-03:00,2018-06-30 00:00:00-03:00,,7.58,,,,26.55,,26.8,0,60.0,0,40.0
9721,2018,6,28,NS / N-É,Cheticamp,Opposite Church,46.627867,-61.021067,2018-06-28 13:45:00-03:00,2018-06-28 14:15:00-03:00,,11.6,,,,23.0,,15.0,5.0,0,0,95.0
9720,2018,6,28,NS / N-É,Cheticamp,Gretchen Beach,46.619467,-61.026367,2018-06-28 13:10:00-03:00,2018-06-28 13:30:00-03:00,,12.32,,,,26.42,,12.6,70.0,0,25.0,5.0
9719,2018,6,28,NS / N-É,Cheticamp,Causeway,46.60239,-61.0345,2018-06-28 12:45:00-03:00,2018-06-28 13:02:00-03:00,,12.24,,,,25.7,,9.4,60.0,0,0,40.0
9718,2018,6,28,NS / N-É,Cheticamp,Fiset Brook,46.598533,-61.022583,2018-06-28 11:35:00-03:00,2018-06-28 12:20:00-03:00,,12.22,,,,27.11,,11.2,85.0,0,0,15.0
9717,2018,6,28,NS / N-É,Cheticamp,Pointe a Cochon,46.615083,-61.0237,2018-06-28 11:00:00-03:00,2018-06-28 11:25:00-03:00,,12.5,,,,26.34,,11.3,60.0,0,0,40.0
9716,2018,6,28,NS / N-É,Cheticamp,Coop,46.6243,-61.017433,2018-06-28 10:20:00-03:00,2018-06-28 10:45:00-03:00,,10.38,,,,25.9,,11.6,35.0,0,45.0,20.0
9768,2018,6,27,PE / Î-P-É,Mill River,Long Creek,46.763,-64.146667,2018-06-27 13:05:00-03:00,2018-06-27 13:45:00-03:00,,10.75,,,,20.47,,20.9,0,20.0,0,80.0
9767,2018,6,27,PE / Î-P-É,Mill River,Meggison Creek,46.773778,-64.126831,2018-06-27 12:45:00-03:00,2018-06-27 13:00:00-03:00,,10.24,,,,23.69,,20.1,0,5.0,0,95.0
9766,2018,6,27,PE / Î-P-É,Mill River,Boat Launch,46.780395,-64.112115,2018-06-27 12:00:00-03:00,2018-06-27 12:30:00-03:00,,9.74,,,,19.1,,19.0,10.0,10.0,0,80.0
9765,2018,6,27,PE / Î-P-É,Mill River,Waterview Rd.,46.760927,-64.12676,2018-06-27 11:00:00-03:00,2018-06-27 11:45:00-03:00,,10.75,,,,21.68,,19.5,10.0,0,0,90.0
9764,2018,6,27,PE / Î-P-É,Mill River,Al Peter's,46.758934,-64.141007,2018-06-27 10:30:00-03:00,2018-06-27 10:55:00-03:00,,9.52,,,,21.99,,17.5,10.0,10.0,0,80.0
9763,2018,6,27,PE / Î-P-É,Mill River,Resort,46.749806,-64.151997,2018-06-27 09:30:00-03:00,2018-06-27 10:15:00-03:00,,8.07,,,,22.29,,18.2,30.0,0,0,70.0
9660,2018,6,26,NS / N-É,Pugwash,Doherty Creek,45.814,-63.659167,2018-06-26 09:30:00-03:00,2018-06-26 10:00:00-03:00,,7.92,,,,17.48,,15.3,0,40.0,0,60.0
9710,2018,6,22,NS / N-É,Antigonish,Naveen Lane,45.635338,-61.904481,2018-06-22 14:15:00-03:00,2018-06-22 15:15:00-03:00,,11.62,,,,7.16,,21.0,30.0,70.0,0,0
9711,2018,6,22,NS / N-É,Antigonish,Aveline Ave,45.667195,-61.884295,2018-06-22 13:30:00-03:00,2018-06-22 14:05:00-03:00,,11.97,,,,12.4,,19.0,50.0,20.0,30.0,0
9715,2018,6,22,NS / N-É,Antigonish,Dunn's Beach,45.68314,-61.87121,2018-06-22 13:00:00-03:00,2018-06-22 13:15:00-03:00,,10.2,,,,16.2,,18.0,60.0,0,5.0,35.0
9713,2018,6,22,NS / N-É,Antigonish,Seabright,45.67237,-61.90695,2018-06-22 11:10:00-03:00,2018-06-22 11:35:00-03:00,,10.52,,,,21.23,,15.7,0,0,50.0,50.0
9712,2018,6,22,NS / N-É,Antigonish,Eden,45.659083,-61.909083,2018-06-22 10:15:00-03:00,2018-06-22 10:50:00-03:00,,10.95,,,,8.25,,17.0,0,0,40.0,60.0
9714,2018,6,22,NS / N-É,Antigonish,Terra Tory Drive,45.65924,-61.913261,2018-06-22 09:00:00-03:00,2018-06-22 10:00:00-03:00,,10.07,,,,7.59,,16.0,0,0,30.0,70.0
9667,2018,6,21,NS / N-É,Tatamagouche,Cape John,45.79205,-63.103233,2018-06-21 14:25:00-03:00,2018-06-21 14:40:00-03:00,,11.2,,,,25.3,,17.0,10.0,0,80.0,10.0
9738,2018,6,21,NB / N-B,Lameque,Roger Noel,47.782426,-64.641109,2018-06-21 13:44:00-03:00,2018-06-21 14:05:00-03:00,,7.39,,,,24.15,,17.9,5.0,0,35.0,60.0
9668,2018,6,21,NS / N-É,Tatamagouche,Rollie's,45.75675,-63.084417,2018-06-21 13:30:00-03:00,2018-06-21 14:20:00-03:00,,8.3,,,,24.2,,23.0,0,0,0,0
9737,2018,6,21,NB / N-B,Lameque,Irving,47.788011,-64.63752,2018-06-21 13:00:00-03:00,2018-06-21 13:25:00-03:00,,7.55,,,,23.0,,17.9,30.0,0,30.0,40.0
9669,2018,6,21,NS / N-É,Tatamagouche,Hamelton Lane,45.760967,-63.188167,2018-06-21 12:50:00-03:00,2018-06-21 13:00:00-03:00,,10.6,,,,26.0,,19.8,10.0,40.0,10.0,40.0
9735,2018,6,21,NB / N-B,Lameque,Chrysler 67,47.80085,-64.664486,2018-06-21 11:30:00-03:00,2018-06-21 11:52:00-03:00,,7.98,,,,23.64,,16.0,20.0,10.0,10.0,60.0
9670,2018,6,21,NS / N-É,Tatamagouche,Tim Horton,45.735417,-63.318383,2018-06-21 11:25:00-03:00,2018-06-21 11:45:00-03:00,,9.6,,,,24.0,,16.3,0,50.0,10.0,40.0
9734,2018,6,21,NB / N-B,Lameque,Chemin Duclos,47.785525,-64.684277,2018-06-21 10:45:00-03:00,2018-06-21 11:25:00-03:00,,5.84,,,,22.9,,17.7,50.0,0,10.0,40.0
9671,2018,6,21,NS / N-É,Tatamagouche,Island Road,45.756033,-63.339,2018-06-21 10:40:00-03:00,2018-06-21 10:55:00-03:00,,8.8,,,,26.32,,15.9,10.0,0,0,90.0
9672,2018,6,21,NS / N-É,Tatamagouche,Malagash Centre,45.77285,-63.305167,2018-06-21 10:00:00-03:00,2018-06-21 10:25:00-03:00,,8.62,,,,26.95,,15.4,10.0,0,0,90.0
9736,2018,6,21,NB / N-B,Lameque,Eco Parc,47.799472,-64.65711,2018-06-21 09:30:00-03:00,2018-06-21 10:18:00-03:00,,7.98,,,,23.85,,15.2,50.0,0,0,50.0
9726,2018,6,20,NB / N-B,Tabusintac,Bayshore,47.376278,-64.938145,2018-06-20 12:55:00-03:00,2018-06-20 13:07:00-03:00,,9.84,,,,20.72,,16.7,5.0,0,0,95.0
9725,2018,6,20,NB / N-B,Tabusintac,Left side of wharf,47.341712,-64.965766,2018-06-20 12:15:00-03:00,2018-06-20 12:30:00-03:00,,10.42,,,,22.43,,15.3,10.0,0,90.0,0
9750,2018,6,20,PE / Î-P-É,Enmore,McGees Field,46.62024,-64.08209,2018-06-20 12:00:00-03:00,2018-06-20 12:35:00-03:00,,7.66,,,,25.38,,16.7,80.0,0,0,20.0
9724,2018,6,20,NB / N-B,Tabusintac,Right side of wharf,47.340217,-64.972078,2018-06-20 11:55:00-03:00,2018-06-20 12:10:00-03:00,,9.66,,,,19.52,,16.2,0,5.0,5.0,90.0
9723,2018,6,20,NB / N-B,Tabusintac,Cemetary,47.332778,-64.995865,2018-06-20 11:30:00-03:00,2018-06-20 11:40:00-03:00,,9.44,,,,20.65,,15.3,10.0,0,10.0,80.0
9749,2018,6,20,PE / Î-P-É,Enmore,Coop Road (Dry Wharf),46.59992,-64.07742,2018-06-20 11:30:00-03:00,2018-06-20 11:55:00-03:00,,7.39,,,,25.67,,10.1,20.0,0,0,80.0
9727,2018,6,20,NB / N-B,Tabusintac,Next to bridge,47.331656,-65.009059,2018-06-20 11:05:00-03:00,2018-06-20 11:15:00-03:00,,9.02,,,,16.25,,16.3,0,10.0,0,90.0
9748,2018,6,20,PE / Î-P-É,Enmore,Enman Shore,46.58261,-64.06773,2018-06-20 11:00:00-03:00,2018-06-20 11:20:00-03:00,,7.35,,,,25.92,,16.2,80.0,0,0,20.0
9722,2018,6,20,NB / N-B,Tabusintac,Covedell Rd.,47.330701,-64.972889,2018-06-20 10:30:00-03:00,2018-06-20 10:53:00-03:00,,9.26,,,,20.4,,14.7,10.0,0,10.0,80.0
9747,2018,6,20,PE / Î-P-É,Enmore,Portage Shore,46.578,-64.05475,2018-06-20 10:15:00-03:00,2018-06-20 10:50:00-03:00,,7.8,,,,21.8,,16.5,0,0,0,0
9746,2018,6,20,PE / Î-P-É,Enmore,Ed Yeo,46.56501,-64.07073,2018-06-20 09:45:00-03:00,2018-06-20 10:05:00-03:00,,7.87,,,,25.9,,15.2,40.0,0,40.0,20.0
9745,2018,6,20,PE / Î-P-É,Enmore,Higgin's wharf,46.54865,-64.08741,2018-06-20 09:00:00-03:00,2018-06-20 09:30:00-03:00,,7.35,,,,25.9,,15.4,10.0,0,0,90.0
9684,2018,6,19,NB / N-B,Cap-Pelé,Aboujagane River,46.22155,-64.39916,2018-06-19 14:00:00-03:00,2018-06-19 14:45:00-03:00,,9.65,,,,25.38,,16.2,0,50.0,0,50.0
9629,2018,6,19,NB / N-B,Cap-Pelé,Kouchibouguac River,46.21546,-64.36419,2018-06-19 13:30:00-03:00,2018-06-19 13:49:00-03:00,,9.34,,,,23.72,,16.5,10.0,10.0,0,80.0
9626,2018,6,19,NB / N-B,Cap-Pelé,Tedish River,46.22523,-64.29596,2018-06-19 13:04:00-03:00,2018-06-19 13:25:00-03:00,,8.96,,,,24.96,,15.8,30.0,5.0,0.0,65.0
9733,2018,6,19,NB / N-B,Tracadie,Parc Val Comeau,47.473463,-64.873712,2018-06-19 12:30:00-03:00,2018-06-19 12:50:00-03:00,,10.26,,,,26.36,,13.9,0,0,0,97.0
9732,2018,6,19,NB / N-B,Tracadie,Quai Val Comeau,47.464352,-64.886087,2018-06-19 12:00:00-03:00,2018-06-19 12:25:00-03:00,,9.2,,,,26.8,,12.8,15.0,0,15.0,70.0
9685,2018,6,19,NB / N-B,Cap-Pelé,Harbour Shore Rd.,46.17319,-64.16438,2018-06-19 11:40:00-03:00,2018-06-19 11:56:00-03:00,,9.03,,,,25.54,,16.4,0,40.0,0,60.0
9728,2018,6,19,NB / N-B,Tracadie,Pointe des Ferguson,47.471838,-64.897916,2018-06-19 11:30:00-03:00,2018-06-19 11:55:00-03:00,,9.39,,,,26.5,,12.1,0,0,0,100.0
9628,2018,6,19,NB / N-B,Cap-Pelé,Comeau Point,46.172,-64.14977,2018-06-19 11:04:00-03:00,2018-06-19 11:25:00-03:00,,9.02,,,,29.47,,16.7,20.0,50.0,5.0,25.0
9731,2018,6,19,NB / N-B,Tracadie,Rue McLaughlin,47.489795,-64.885233,2018-06-19 11:00:00-03:00,2018-06-19 12:00:00-03:00,,9.06,,,,26.29,,14.0,5.0,0,0,95.0
9627,2018,6,19,NB / N-B,Cap-Pelé,Camp Ta-Wa-Si,46.1827,-64.11454,2018-06-19 10:00:00-03:00,2018-06-19 10:44:00-03:00,,9.84,,,,25.71,,15.0,20.0,0,10.0,70.0
9730,2018,6,19,NB / N-B,Tracadie,Chalets des 2 Rivieres,47.51692,-64.899713,2018-06-19 10:00:00-03:00,2018-06-19 10:55:00-03:00,,8.5,,,,18.81,,16.4,20.0,0,0,80.0
9729,2018,6,19,NB / N-B,Tracadie,Allee des Canards,47.527732,-64.894019,2018-06-19 09:30:00-03:00,2018-06-19 09:55:00-03:00,,7.52,,,,25.04,,16.4,5.0,0,0,95.0
9775,2018,6,18,NB / N-B,St-Louis de Kent,Pointe a Donatien,46.746883,-64.970356,2018-06-18 14:45:00-03:00,2018-06-18 15:22:00-03:00,,9.41,,,,9.8,,16.3,25.0,50.0,0,25.0
9777,2018,6,18,NB / N-B,St-Louis de Kent,Park North,46.75123,-64.951922,2018-06-18 14:00:00-03:00,2018-06-18 14:35:00-03:00,,9.36,,,,11.58,,16.3,0,80.0,5.0,15.0
9779,2018,6,18,NB / N-B,St-Louis de Kent,Wharf,46.757328,-64.917023,2018-06-18 11:45:00-03:00,2018-06-18 12:30:00-03:00,,9.21,,,,19.95,,16.0,0,10.0,0,90.0
9778,2018,6,18,NB / N-B,St-Louis de Kent,Park South,46.750968,-64.949386,2018-06-18 10:45:00-03:00,2018-06-18 11:33:00-03:00,,9.26,,,,13.69,,16.3,0,80.0,0,20.0
9776,2018,6,18,NB / N-B,St-Louis de Kent,Ch. Ghislain South,46.747258,-64.963693,2018-06-18 09:25:00-03:00,2018-06-18 10:25:00-03:00,,8.85,,,,9.71,,16.8,10.0,70.0,0,20.0
9791,2018,6,15,NB / N-B,Scoudouc River,Lobster,46.218937,-64.554866,2018-06-15 14:38:00-03:00,2018-06-15 15:10:00-03:00,,9.41,,,,15.04,,17.0,0,0,0,100.0
9704,2018,6,15,PE / Î-P-É,Trout River,Thymehill,46.44482,-63.47322,2018-06-15 14:30:00-03:00,2018-06-15 15:15:00-03:00,,11.15,,,,14.59,,15.9,10.0,5.0,0,85.0
9786,2018,6,15,NB / N-B,Scoudouc River,Gazibo,46.21465,-64.552165,2018-06-15 13:37:00-03:00,2018-06-15 14:32:00-03:00,,9.11,,,,10.39,,19.7,0,70.0,0,30.0
9709,2018,6,15,PE / Î-P-É,Trout River,Douglas Road,46.45854,-63.46931,2018-06-15 13:15:00-03:00,2018-06-15 14:10:00-03:00,,10.72,,,,23.62,,16.0,0,0,0,0
9788,2018,6,15,NB / N-B,Scoudouc River,Rue Dock,46.220777,-64.552474,2018-06-15 13:12:00-03:00,2018-06-15 13:31:00-03:00,,8.28,,,,19.26,,15.2,10.0,0,0,90.0
9708,2018,6,15,PE / Î-P-É,Trout River,Inn on the Pier,46.46921,-63.45003,2018-06-15 12:40:00-03:00,2018-06-15 13:05:00-03:00,,10.16,,,,25.93,,15.3,5.0,0,0,95.0
9790,2018,6,15,NB / N-B,Scoudouc River,Bridge out,46.219562,-64.553471,2018-06-15 12:14:00-03:00,2018-06-15 12:54:00-03:00,,8.15,,,,18.26,,14.7,5.0,0,0,95.0
9707,2018,6,15,PE / Î-P-É,Trout River,Trout River Road,46.458182,-63.461426,2018-06-15 11:30:00-03:00,2018-06-15 12:30:00-03:00,,10.54,,,,20.8,,14.6,0,5.0,0,95.0
9789,2018,6,15,NB / N-B,Scoudouc River,Fish Plant,46.219115,-64.553316,2018-06-15 10:45:00-03:00,2018-06-15 11:31:00-03:00,,8.76,,,,17.57,,12.8,25.0,25.0,25.0,25.0
9706,2018,6,15,PE / Î-P-É,Trout River,Tommy Gallant,46.448448,-63.465789,2018-06-15 10:30:00-03:00,2018-06-15 11:15:00-03:00,,10.13,,,,20.56,,13.9,5.0,20.0,0,75.0
9787,2018,6,15,NB / N-B,Scoudouc River,Breakwater,46.217178,-64.551758,2018-06-15 09:25:00-03:00,2018-06-15 10:40:00-03:00,,8.4,,,,13.65,,12.2,5.0,0,0,95.0
9705,2018,6,15,PE / Î-P-É,Trout River,Trout River Park,46.42157,-63.44011,2018-06-15 09:00:00-03:00,2018-06-15 10:15:00-03:00,,11.09,,,,11.5,,12.4,0,50.0,0,50.0
9696,2018,6,14,PE / Î-P-É,Souris,Causeway East (50%),46.35652,-62.27541,2018-06-14 10:30:00-03:00,2018-06-14 10:45:00-03:00,,9.75,,,,27.77,,9.3,50.0,0,10.0,40.0
9695,2018,6,14,PE / Î-P-É,Souris,Paul Deveau,46.37034,-62.27871,2018-06-14 10:05:00-03:00,2018-06-14 10:15:00-03:00,,9.24,,,,27.1,,10.4,10.0,20.0,0,70.0
9694,2018,6,14,PE / Î-P-É,Souris,Tim Campbell,46.36766,-62.28626,2018-06-14 09:40:00-03:00,2018-06-14 09:47:00-03:00,,8.99,,,,26.19,,11.4,10.0,0,10.0,80.0
9693,2018,6,14,PE / Î-P-É,Souris,Paul Gallant 50%,46.35741,-62.27969,2018-06-14 09:08:00-03:00,2018-06-14 09:25:00-03:00,,9.46,,,,26.56,,10.1,0,20.0,0,80.0
9692,2018,6,14,PE / Î-P-É,Souris,Joe Carter 100%,46.35015,-62.2796,2018-06-14 08:50:00-03:00,2018-06-14 09:00:00-03:00,,9.61,,,,27.07,,9.9,0,0,0,100.0
9697,2018,6,14,PE / Î-P-É,Souris,Ferry 100%,46.35102,-62.2504,2018-06-14 08:15:00-03:00,2018-06-14 08:30:00-03:00,,9.74,,,,27.77,,8.7,0,0,0,100.0
9673,2018,6,13,PE / Î-P-É,Brudenell-Montague,Wightman's Point,46.163516,-62.532719,2018-06-13 12:40:00-03:00,2018-06-13 13:00:00-03:00,,10.32,,,,28.34,,12.9,5.0,0,0,95.0
9678,2018,6,13,PE / Î-P-É,Brudenell-Montague,Richmond Street,46.181156,-62.539139,2018-06-13 12:30:00-03:00,2018-06-13 12:40:00-03:00,,8.56,,,,27.45,,15.1,0,0,0,100.0
9677,2018,6,13,PE / Î-P-É,Brudenell-Montague,Parker's Point,46.183691,-62.543005,2018-06-13 12:00:00-03:00,2018-06-13 12:20:00-03:00,,9.6,,,,27.67,,13.1,5.0,0,0,95.0
9676,2018,6,13,PE / Î-P-É,Brudenell-Montague,Island East,46.197824,-62.578086,2018-06-13 11:15:00-03:00,2018-06-13 11:45:00-03:00,,9.91,,,,28.27,,12.7,0,0,0,100.0
9675,2018,6,13,PE / Î-P-É,Brudenell-Montague,Island West,46.197877,-62.578434,2018-06-13 10:30:00-03:00,2018-06-13 11:10:00-03:00,,9.12,,,,28.07,,13.2,0,0,0,100.0
9674,2018,6,13,PE / Î-P-É,Brudenell-Montague,Aitken Point,46.172776,-62.547863,2018-06-13 09:45:00-03:00,2018-06-13 10:10:00-03:00,,8.85,,,,27.66,,13.5,5.0,0,0,95.0
9683,2018,6,12,PE / Î-P-É,Murray River,Clows Point,46.048606,-62.52941,2018-06-12 11:30:00-03:00,2018-06-12 12:10:00-03:00,,10.11,,,,26.65,,13.1,30.0,0,10.0,60.0
9682,2018,6,12,PE / Î-P-É,Murray River,Cemetery,46.008167,-62.514202,2018-06-12 11:00:00-03:00,2018-06-12 11:25:00-03:00,,9.63,,,,27.12,,13.01,5.0,20.0,0,75.0
9681,2018,6,12,PE / Î-P-É,Murray River,Machons Point,46.018891,-62.511072,2018-06-12 10:30:00-03:00,2018-06-12 10:55:00-03:00,,10.62,,,,28.5,,11.4,30.0,0,10.0,60.0
9680,2018,6,12,PE / Î-P-É,Murray River,Sharams Point,46.020309,-62.525012,2018-06-12 10:00:00-03:00,2018-06-12 10:25:00-03:00,,9.66,,,,27.75,,12.4,40.0,0,0,60.0
9679,2018,6,12,PE / Î-P-É,Murray River,Nicolle Cove,46.023203,-62.537107,2018-06-12 09:45:00-03:00,2018-06-12 09:57:00-03:00,,9.45,,,,27.42,,11.7,5.0,0,0,95.0
9780,2018,6,11,NB / N-B,Shediac River,Chez Leo,46.273139,-64.575275,2018-06-11 15:00:00-03:00,2018-06-11 16:00:00-03:00,,10.75,,,,18.62,,16.7,0,70.0,0,30.0
9825,2018,6,11,NB / N-B,Pokemouche,Centre Plein Air,47.67657,-64.84812,2018-06-11 14:10:00-03:00,2018-06-11 15:00:00-03:00,,13.71,,,,8.07,,17.9,15.0,30.0,15.0,40.0
9782,2018,6,11,NB / N-B,Shediac River,Bridge in,46.273467,-64.576255,2018-06-11 13:35:00-03:00,2018-06-11 14:50:00-03:00,,10.21,,,,17.75,,16.1,0,60.0,0,40.0
9824,2018,6,11,NB / N-B,Pokemouche,Sentier NB,47.67381,-64.8209,2018-06-11 13:30:00-03:00,2018-06-11 14:00:00-03:00,,11.4,,,,8.12,,14.0,10.0,20.0,0,70.0
9823,2018,6,11,NB / N-B,Pokemouche,Chemin Arseneau,47.66008,-64.80486,2018-06-11 13:15:00-03:00,2018-06-11 13:25:00-03:00,,11.25,,,,15.16,,13.0,15.0,60.0,0,25.0
9822,2018,6,11,NB / N-B,Pokemouche,Pointe des Mazeroles,47.67109,-64.8083,2018-06-11 12:00:00-03:00,2018-06-11 13:00:00-03:00,,11.72,,,,11.96,,13.4,5.0,75.0,0,20.0
9783,2018,6,11,NB / N-B,Shediac River,Seagull,46.270801,-64.574252,2018-06-11 11:43:00-03:00,2018-06-11 12:15:00-03:00,,10.19,,,,19.3,,15.6,0,0,0,100.0
9821,2018,6,11,NB / N-B,Pokemouche,Inkerman Ferry,47.67764,-64.81683,2018-06-11 11:15:00-03:00,2018-06-11 11:50:00-03:00,,11.0,,,,9.43,,13.8,0,0,0,0
9784,2018,6,11,NB / N-B,Shediac River,Indian Point,46.273319,-64.56477,2018-06-11 11:00:00-03:00,2018-06-11 11:34:00-03:00,,10.14,,,,21.53,,15.0,5.0,0,0,95.0
9820,2018,6,11,NB / N-B,Pokemouche,Pointe a Godin,47.68707,-64.8487,2018-06-11 10:15:00-03:00,2018-06-11 10:35:00-03:00,,11.5,,,,9.28,,14.8,60.0,5.0,10.0,25.0
9781,2018,6,11,NB / N-B,Shediac River,Wetland,46.274617,-64.571954,2018-06-11 10:09:00-03:00,2018-06-11 10:47:00-03:00,,9.71,,,,23.42,,15.4,10.0,0,0,90.0
9785,2018,6,11,NB / N-B,Shediac River,Albert Gallant,46.279518,-64.572578,2018-06-11 09:07:00-03:00,2018-06-11 10:01:00-03:00,,10.4,,,,23.54,,14.8,5.0,5.0,0,90.0
9687,2018,6,8,PE / Î-P-É,Pinette,Causeway North,46.06005,-62.90985,2018-06-08 10:45:00-03:00,2018-06-08 11:00:00-03:00,,25.23,,,,25.48,,13.5,5.0,30.0,0,65.0
9686,2018,6,8,PE / Î-P-É,Pinette,Causeway South,46.058533,-62.90725,2018-06-08 10:30:00-03:00,2018-06-08 10:40:00-03:00,,9.61,,,,25.81,,13.1,5.0,15.0,0,80.0
9691,2018,6,8,PE / Î-P-É,Pinette,Harbour,46.058417,-62.928533,2018-06-08 00:00:00-03:00,2018-06-08 00:00:00-03:00,,9.22,,,,27.01,,13.8,0,20.0,0,80.0
9688,2018,6,8,PE / Î-P-É,Pinette,Larson Drive,46.061033,-62.916083,2018-06-08 00:00:00-03:00,2018-06-08 00:00:00-03:00,,9.35,,,,25.08,,12.9,5.0,30.0,0,65.0
9689,2018,6,8,PE / Î-P-É,Pinette,Park Boat Launch,46.054833,-62.9105,2018-06-08 00:00:00-03:00,2018-06-08 00:00:00-03:00,,10.04,,,,26.55,,12.3,5.0,20.0,5.0,70.0
9690,2018,6,8,PE / Î-P-É,Pinette,South Branch Wharf,46.053333,-62.9111,2018-06-08 00:00:00-03:00,2018-06-08 00:00:00-03:00,,10.18,,,,27.11,,11.9,10.0,0,0,90.0
9754,2018,6,7,PE / Î-P-É,Hillsborough,Hillsborough Hospital,46.253637326,-63.098152896,2018-06-07 13:00:00-03:00,2018-06-07 13:25:00-03:00,,10.25,,,,26.16,,14.4,0,0,0,100.0
9752,2018,6,7,PE / Î-P-É,Hillsborough,West River/Causeway,46.188544,-63.232663,2018-06-07 11:00:00-03:00,2018-06-07 11:40:00-03:00,,10.56,,,,25.45,,14.1,0,0,0,100.0
9751,2018,6,7,PE / Î-P-É,Hillsborough,Rocky Point,46.20736,-63.14716,2018-06-07 10:00:00-03:00,2018-06-07 10:30:00-03:00,,10.38,,,,26.89,,12.9,0,0,0,100.0
9756,2018,6,7,PE / Î-P-É,Hillsborough,Aptose Road,46.219466,-63.113672,2018-06-07 00:00:00-03:00,2018-06-07 00:00:00-03:00,,14.75,,,,27.14,,14.4,10.0,0,10.0,80.0
9755,2018,6,7,PE / Î-P-É,Hillsborough,Horton Park,46.242433,-63.090807999,2018-06-07 00:00:00-03:00,2018-06-07 00:00:00-03:00,,9.2,,,,27.0,,18.0,5.0,0,5.0,90.0
9753,2018,6,7,PE / Î-P-É,Hillsborough,Queen Elizabeth Park,46.2482,-63.1535,2018-06-07 00:00:00-03:00,2018-06-07 00:00:00-03:00,,10.1,,,,25.62,,14.9,0,0,0,100.0
9800,2018,6,6,NB / N-B,Eel Ground,Eel Ground,46.9639,-65.62628,2018-06-06 12:01:00-03:00,2018-06-06 12:24:00-03:00,,8.47,,,,0.04,,17.2,50.0,0,40.0,10.0
9802,2018,6,6,NB / N-B,Eel Ground,Wilson Point,46.96419,-65.59513,2018-06-06 11:25:00-03:00,2018-06-06 11:40:00-03:00,,9.0,,,,0.36,,16.4,40.0,0,40.0,20.0
9799,2018,6,6,NB / N-B,Eel Ground,Anderson's Bridge,46.96733,-65.59996,2018-06-06 10:59:00-03:00,2018-06-06 11:12:00-03:00,,8.25,,,,0.16,,16.5,15.0,0,0,85.0
9798,2018,6,6,NB / N-B,Eel Ground,Strawberry Marsh,46.98624,-65.57426,2018-06-06 10:34:00-03:00,2018-06-06 10:46:00-03:00,,8.56,,,,3.18,,16.1,40.0,0,40.0,20.0
9801,2018,6,6,NB / N-B,Eel Ground,Nelson Road,46.96865,-65.55928,2018-06-06 09:48:00-03:00,2018-06-06 10:16:00-03:00,,9.46,,,,0.28,,15.3,0,0,40.0,60.0
9809,2018,6,5,NB / N-B,Miramichi,Burnt Church,47.193236,-65.136361,2018-06-05 12:45:00-03:00,2018-06-05 13:00:00-03:00,,9.85,,,,19.2,,11.4,10.0,0,30.0,60.0
9813,2018,6,5,NB / N-B,Miramichi,Oak Point,47.116738,-65.266799,2018-06-05 12:00:00-03:00,2018-06-05 12:20:00-03:00,,9.68,,,,11.93,,13.2,0,10.0,0,90.0
9811,2018,6,5,NB / N-B,Miramichi,Gordon's wharf,47.079645,-65.393156,2018-06-05 11:30:00-03:00,2018-06-05 11:47:00-03:00,,9.8,,,,5.97,,14.3,10.0,0,0,90.0
9812,2018,6,5,NB / N-B,Miramichi,Middle Island,47.057687,-65.426951,2018-06-05 10:55:00-03:00,2018-06-05 11:08:00-03:00,,9.45,,,,4.35,,15.0,40.0,0,10.0,50.0
9810,2018,6,5,NB / N-B,Miramichi,Murdock beach,47.074723,-65.33653,2018-06-05 10:30:00-03:00,2018-06-05 10:40:00-03:00,,9.42,,,,9.72,,14.0,5.0,10.0,30.0,55.0
9814,2018,6,5,NB / N-B,Miramichi,Pointe aux Carr,47.077419,-65.207023,2018-06-05 09:30:00-03:00,2018-06-05 10:00:00-03:00,,9.88,,,,14.03,,12.3,0,0,80.0,20.0
9638,2018,6,4,NB / N-B,Bouctouche,Behind the takeout,46.469231,-64.714104,2018-06-04 16:35:00-03:00,2018-06-04 17:15:00-03:00,,10.16,,,,22.42,,15.2,0,10.0,0,90.0
9637,2018,6,4,NB / N-B,Bouctouche,Info Center,46.471729,-64.714365,2018-06-04 16:00:00-03:00,2018-06-04 16:27:00-03:00,,8.88,,,,21.87,,15.7,5.0,60.0,20.0,15.0
9639,2018,6,4,NB / N-B,Bouctouche,Pub by the bridge,46.471865,-64.719819,2018-06-04 15:23:00-03:00,2018-06-04 15:42:00-03:00,,8.57,,,,20.52,,15.1,60.0,20.0,10.0,10.0
9636,2018,6,4,NB / N-B,Bouctouche,Marina,46.475972,-64.710486,2018-06-04 14:45:00-03:00,2018-06-04 15:10:00-03:00,,8.92,,,,22.5,,15.9,5.0,70.0,5.0,20.0
9640,2018,6,4,NB / N-B,Bouctouche,Treatment Plant outlet,46.46733,-64.722576,2018-06-04 14:00:00-03:00,2018-06-04 14:39:00-03:00,,9.26,,,,19.45,,16.0,0,85.0,5.0,10.0
9641,2018,6,4,NB / N-B,Bouctouche,Route 11,46.462419,-64.726601,2018-06-04 13:25:00-03:00,2018-06-04 13:48:00-03:00,,8.92,,,,21.0,,16.2,5.0,30.0,0,65.0
9643,2018,6,4,NB / N-B,Cocagne,Cocagne Marina,46.332469,-64.624657,2018-06-04 12:45:00-03:00,2018-06-04 13:05:00-03:00,,8.71,,,,21.99,,13.3,0,40.0,0,60.0
9642,2018,6,4,NB / N-B,Cocagne,Breau Road,46.36724,-64.61738,2018-06-04 11:45:00-03:00,2018-06-04 12:03:00-03:00,,8.82,,,,24.46,,13.4,5.0,0,30.0,65.0
9646,2018,6,4,NB / N-B,Cocagne,Chemin Belle-Côte,46.33125,-64.58293,2018-06-04 11:00:00-03:00,2018-06-04 11:25:00-03:00,,8.55,,,,24.11,,13.1,20.0,0,50.0,30.0
9645,2018,6,4,NB / N-B,Cocagne,Gauvin Beach,46.34102,-64.573724,2018-06-04 10:15:00-03:00,2018-06-04 10:40:00-03:00,,8.39,,,,24.11,,12.4,20.0,5.0,5.0,70.0
9647,2018,6,4,NB / N-B,Cocagne,Marina Beach Cape,46.35647,-64.573946,2018-06-04 09:35:00-03:00,2018-06-04 10:05:00-03:00,,8.33,,,,24.6,,12.2,20.0,0,0,80.0
9644,2018,6,4,NB / N-B,Cocagne,Lighthouse,46.335807,-64.615219,2018-06-04 08:33:00-03:00,2018-06-04 09:15:00-03:00,,8.15,,,,22.55,,12.2,0,0,0,100.0
9537,2017,8,1,NB / N-B,Cap-Pelé,Aboujagane River,46.22155,-64.39916,2017-08-01 00:00:00-03:00,,,7.53,,,,27.29,,21.2,0,0,0,0
9438,2017,8,1,PE / Î-P-É,Basin Head,Across Lagoon,46.384835,-62.109143,2017-08-01 00:00:00-03:00,,,8.0,,,,27.12,,20.2,0,0,0,0
9436,2017,8,1,PE / Î-P-É,Basin Head,Across Slipway,46.382572,-62.110019,2017-08-01 00:00:00-03:00,,,8.01,,,,27.1,,20.2,0,0,0,0
9448,2017,8,1,PE / Î-P-É,Brudenell-Montague,Aitken Point,46.172776,-62.547863,2017-08-01 00:00:00-03:00,,,6.32,,,,25.57,,18.7,0,0,0,0
9514,2017,8,1,PE / Î-P-É,Mill River,Al Peter's,46.758934,-64.141007,2017-08-01 00:00:00-03:00,,,6.78,,,,22.86,,20.4,0,0,0,0
9584,2017,8,1,NB / N-B,Shediac River,Albert Gallant,46.279518,-64.572578,2017-08-01 00:00:00-03:00,,,5.98,,,,25.5,,19.0,0,0,0,0
9615,2017,8,1,NB / N-B,Tracadie,Allee des Canards,47.527732,-64.894019,2017-08-01 00:00:00-03:00,,,7.94,,,,26.2,,18.6,0,0,0,0
9478,2017,8,1,NB / N-B,Eel Ground,Anderson's Bridge,46.96733,-65.59996,2017-08-01 00:00:00-03:00,,,7.59,,,,7.44,,21.1,0,0,0,0
9499,2017,8,1,NB / N-B,Cape Jourimain,Annes Acres,46.15355,-63.846567,2017-08-01 00:00:00-03:00,,,8.1,,,,27.14,,19.8,0,0,0,0
9494,2017,8,1,PE / Î-P-É,Hillsborough,Aptose Road,46.219466,-63.113672,2017-08-01 00:00:00-03:00,,,12.03,,,,27.55,,26.4,0,0,0,0
9430,2017,8,1,NS / N-É,Antigonish,Aveline Ave,45.667195,-61.884295,2017-08-01 00:00:00-03:00,,,6.55,,,,25.97,,20.9,0,0,0,0
9601,2017,8,1,PE / Î-P-É,Summerside,Bakers Launch,46.369117,-63.755742,2017-08-01 00:00:00-03:00,,,8.71,,,,24.4,,22.4,0,0,0,0
9607,2017,8,1,NB / N-B,Tabusintac,Bayshore,47.376278,-64.938145,2017-08-01 00:00:00-03:00,,,8.19,,,,24.35,,23.2,0,0,0,0
9510,2017,8,1,PE / Î-P-É,Malpèque Bay,Beech Point,46.494013,-63.747559001,2017-08-01 00:00:00-03:00,,,11.47,,,,27.11,,25.4,0,0,0,0
9443,2017,8,1,NB / N-B,Bouctouche,Behind the takeout,46.469231,-64.714104,2017-08-01 00:00:00-03:00,,,6.15,,,,24.45,,22.4,0,0,0,0
9509,2017,8,1,PE / Î-P-É,Malpèque Bay,Belmont Park,46.5153,-63.8311,2017-08-01 00:00:00-03:00,,,7.47,,,,27.19,,22.9,0,0,0,0
9527,2017,8,1,PE / Î-P-É,Murray River,Big Basin,46.046019,-62.537162,2017-08-01 00:00:00-03:00,,,8.19,,,,26.48,,23.3,0,0,0,0
9598,2017,8,1,PE / Î-P-É,Summerside,Boardwalk,46.395416,-63.8017,2017-08-01 00:00:00-03:00,,,8.44,,,,26.01,,19.8,0,0,0,0
9547,2017,8,1,NS / N-É,Pictou,Boat Harbour,45.67576,-62.63784,2017-08-01 00:00:00-03:00,,,7.04,,,,27.16,,19.1,0,0,0,0
9516,2017,8,1,PE / Î-P-É,Mill River,Boat Launch,46.780395,-64.112115,2017-08-01 00:00:00-03:00,,,9.24,,,,22.71,,20.5,0,0,0,0
9543,2017,8,1,NS / N-É,Pictou,Boggs Brook,45.64062,-62.72919,2017-08-01 00:00:00-03:00,,,8.4,,,,27.23,,22.2,0,0,0,0
9574,2017,8,1,NB / N-B,Scoudouc River,Breakwater,46.217178,-64.551758,2017-08-01 00:00:00-03:00,,,6.02,,,,26.47,,19.8,0,0,0,0
9465,2017,8,1,NB / N-B,Cocagne,Breau Road,46.36724,-64.61738,2017-08-01 00:00:00-03:00,,,7.15,,,,27.25,,22.0,0,0,0,0
9473,2017,8,1,PE / Î-P-É,Brackley/Covehead,Brewster,46.41694444444445,-63.1908333333333,2017-08-01 00:00:00-03:00,,,5.02,,,,23.3,,20.4,0,0,0,0
9564,2017,8,1,NS / N-É,Pugwash,Brickyard,45.85025,-63.66695,2017-08-01 00:00:00-03:00,,,7.1,,,,27.29,,18.6,0,0,0,0
9581,2017,8,1,NB / N-B,Shediac River,Bridge in,46.273467,-64.576255,2017-08-01 00:00:00-03:00,,,7.21,,,,25.87,,20.2,0,0,0,0
9577,2017,8,1,NB / N-B,Scoudouc River,Bridge out,46.219562,-64.553471,2017-08-01 00:00:00-03:00,,,6.14,,,,26.66,,20.1,0,0,0,0
9519,2017,8,1,NB / N-B,Miramichi,Burnt Church,47.193236,-65.136361,2017-08-01 00:00:00-03:00,,,6.91,,,,21.01,,26.4,0,0,0,0
9542,2017,8,1,NB / N-B,Cap-Pelé,Camp Ta-Wa-Si,46.1827,-64.11454,2017-08-01 00:00:00-03:00,,,6.67,,,,27.51,,20.8,0,0,0,0
9609,2017,8,1,NS / N-É,Tatamagouche,Cape John,45.79205,-63.103233,2017-08-01 00:00:00-03:00,,,9.2,,,,27.62,,20.3,0,0,0,0
9495,2017,8,1,NB / N-B,Cape Jourimain,Cape Tourmentine,46.13285,-63.784783,2017-08-01 00:00:00-03:00,,,7.91,,,,28.38,,18.0,0,0,0,0
9567,2017,8,1,NB / N-B,Richibouctou,Carson Landing,46.644702,-64.870099,2017-08-01 00:00:00-03:00,,,7.72,,,,23.86,,21.1,0,0,0,0
9462,2017,8,1,NS / N-É,Cheticamp,Causeway,46.60239,-61.0345,2017-08-01 00:00:00-03:00,,,7.12,,,,26.78,,20.9,0,0,0,0
9589,2017,8,1,PE / Î-P-É,Souris,Causeway East (50%),46.35652,-62.27541,2017-08-01 00:00:00-03:00,,,7.44,,,,26.31,,20.1,0,0,0,0
9550,2017,8,1,PE / Î-P-É,Pinette,Causeway North,46.06005,-62.90985,2017-08-01 00:00:00-03:00,,,7.55,,,,26.38,,26.3,0,0,0,0
9549,2017,8,1,PE / Î-P-É,Pinette,Causeway South,46.058533,-62.90725,2017-08-01 00:00:00-03:00,,,8.67,,,,26.66,,24.0,0,0,0,0
9604,2017,8,1,NB / N-B,Tabusintac,Cemetary,47.332778,-64.995865,2017-08-01 00:00:00-03:00,,,7.14,,,,16.42,,20.8,0,0,0,0
9529,2017,8,1,PE / Î-P-É,Murray River,Cemetery,46.008167,-62.514202,2017-08-01 00:00:00-03:00,,,6.25,,,,26.06,,21.3,0,0,0,0
9560,2017,8,1,NB / N-B,Pokemouche,Centre Plein Air,47.67657,-64.84812,2017-08-01 00:00:00-03:00,,,4.22,,,,15.04,,23.6,0,0,0,0
9594,2017,8,1,NB / N-B,St-Louis de Kent,Ch. Ghislain South,46.747258,-64.963693,2017-08-01 00:00:00-03:00,,,7.99,,,,18.22,,22.6,0,0,0,0
9572,2017,8,1,NB / N-B,Richibouctou,Chalet du Havre,46.689667,-64.858834,2017-08-01 00:00:00-03:00,,,8.06,,,,26.46,,18.1,0,0,0,0
9616,2017,8,1,NB / N-B,Tracadie,Chalets des 2 Rivieres,47.51692,-64.899713,2017-08-01 00:00:00-03:00,,,6.79,,,,22.58,,19.8,0,0,0,0
9558,2017,8,1,NB / N-B,Pokemouche,Chemin Arseneau,47.66008,-64.80486,2017-08-01 00:00:00-03:00,,,6.07,,,,25.05,,22.1,0,0,0,0
9469,2017,8,1,NB / N-B,Cocagne,Chemin Belle-Côte,46.33125,-64.58293,2017-08-01 00:00:00-03:00,,,8.45,,,,26.52,,21.6,0,0,0,0
9579,2017,8,1,NB / N-B,Shediac River,Chez Leo,46.273139,-64.575275,2017-08-01 00:00:00-03:00,,,8.06,,,,26.16,,20.9,0,0,0,0
9530,2017,8,1,PE / Î-P-É,Murray River,Clows Point,46.048606,-62.52941,2017-08-01 00:00:00-03:00,,,9.12,,,,23.7,,22.0,0,0,0,0
9466,2017,8,1,NB / N-B,Cocagne,Cocagne Marina,46.332469,-64.624657,2017-08-01 00:00:00-03:00,,,7.17,,,,26.3,,24.0,0,0,0,0
9541,2017,8,1,NB / N-B,Cap-Pelé,Comeau Point,46.172,-64.14977,2017-08-01 00:00:00-03:00,,,5.64,,,,27.32,,21.0,0,0,0,0
9459,2017,8,1,NS / N-É,Cheticamp,Coop,46.6243,-61.017433,2017-08-01 00:00:00-03:00,,,8.47,,,,26.34,,20.7,0,0,0,0
9484,2017,8,1,PE / Î-P-É,Enmore,Coop Road (Dry Wharf),46.59992,-64.07742,2017-08-01 00:00:00-03:00,,,7.73,,,,27.19,,18.0,0,0,0,0
9603,2017,8,1,NB / N-B,Tabusintac,Covedell Rd.,47.330701,-64.972889,2017-08-01 00:00:00-03:00,,,7.03,,,,20.76,,19.4,0,0,0,0
9563,2017,8,1,NS / N-É,Pugwash,Crescent Beach,45.8547,-63.66575,2017-08-01 00:00:00-03:00,,,7.11,,,,27.32,,19.1,0,0,0,0
9561,2017,8,1,NS / N-É,Pugwash,Doherty Creek,45.814,-63.659167,2017-08-01 00:00:00-03:00,,,7.3,,,,27.35,,20.5,0,0,0,0
9625,2017,8,1,PE / Î-P-É,Trout River,Douglas Road,46.45854,-63.46931,2017-08-01 00:00:00-03:00,,,9.75,,,,24.22,,23.3,0,0,0,0
9434,2017,8,1,NS / N-É,Antigonish,Dunn's Beach,45.68314,-61.87121,2017-08-01 00:00:00-03:00,,,6.95,,,,26.94,,21.5,0,0,0,0
9546,2017,8,1,NS / N-É,Pictou,East Side Causeway,45.669717,-62.7275,2017-08-01 00:00:00-03:00,,,6.89,,,,27.11,,20.2,0,0,0,0
9487,2017,8,1,PE / Î-P-É,Enmore,Ed Yeo,46.56501,-64.07073,2017-08-01 00:00:00-03:00,,,7.48,,,,29.1,,18.1,0,0,0,0
9431,2017,8,1,NS / N-É,Antigonish,Eden,45.659083,-61.909083,2017-08-01 00:00:00-03:00,,,9.29,,,,25.84,,22.9,0,0,0,0
9479,2017,8,1,NB / N-B,Eel Ground,Eel Ground,46.9639,-65.62628,2017-08-01 00:00:00-03:00,,,8.43,,,,6.81,,22.6,0,0,0,0
9496,2017,8,1,NB / N-B,Cape Jourimain,End of Wharf Rd,46.16837,-63.936214,2017-08-01 00:00:00-03:00,,,7.73,,,,27.6,,20.2,0,0,0,0
9485,2017,8,1,PE / Î-P-É,Enmore,Enman Shore,46.58261,-64.06773,2017-08-01 00:00:00-03:00,,,7.04,,,,27.31,,18.3,0,0,0,0
9536,2017,8,1,NB / N-B,Néguac,Esgenoopetitj,47.211567,-65.114617,2017-08-01 00:00:00-03:00,,,8.52,,,,22.35,,22.5,0,0,0,0
9534,2017,8,1,NB / N-B,Néguac,Ferdinand Road,47.246197,-65.072603,2017-08-01 00:00:00-03:00,,,9.88,,,,24.57,,21.6,0,0,0,0
9590,2017,8,1,PE / Î-P-É,Souris,Ferry 100%,46.35102,-62.2504,2017-08-01 00:00:00-03:00,,,7.61,,,,26.44,,20.3,0,0,0,0
9461,2017,8,1,NS / N-É,Cheticamp,Fiset Brook,46.598533,-61.022583,2017-08-01 00:00:00-03:00,,,10.34,,,,26.32,,21.7,0,0,0,0
9454,2017,8,1,NB / N-B,Caraquet,Fish Meal,47.807329,-64.857323,2017-08-01 00:00:00-03:00,,,6.65,,,,26.5,,18.8,0,0,0,0
9576,2017,8,1,NB / N-B,Scoudouc River,Fish Plant,46.219115,-64.553316,2017-08-01 00:00:00-03:00,,,5.9,,,,26.15,,20.4,0,0,0,0
9468,2017,8,1,NB / N-B,Cocagne,Gauvin Beach,46.34102,-64.573724,2017-08-01 00:00:00-03:00,,,7.49,,,,27.12,,22.1,0,0,0,0
9573,2017,8,1,NB / N-B,Scoudouc River,Gazibo,46.21465,-64.552165,2017-08-01 00:00:00-03:00,,,5.95,,,,26.51,,20.0,0,0,0,0
9502,2017,8,1,NS / N-É,Mabou,Gillis Cove,46.08585,-61.458805,2017-08-01 00:00:00-03:00,,,8.08,,,,24.8,,23.4,0,0,0,0
9599,2017,8,1,PE / Î-P-É,Summerside,Glover Pt.,46.389143,-63.770298,2017-08-01 00:00:00-03:00,,,8.41,,,,25.73,,21.1,0,0,0,0
9569,2017,8,1,NB / N-B,Richibouctou,Goguen Road,46.674162,-64.84545,2017-08-01 00:00:00-03:00,,,9.14,,,,24.72,,22.8,0,0,0,0
9471,2017,8,1,PE / Î-P-É,Brackley/Covehead,Golfe Course,46.41305555555556,-63.1166666666667,2017-08-01 00:00:00-03:00,,,10.03,,,,23.7,,23.1,0,0,0,0
9503,2017,8,1,NS / N-É,Mabou,Goose Point,46.06671,-61.427544,2017-08-01 00:00:00-03:00,,,8.3,,,,21.78,,23.5,0,0,0,0
9521,2017,8,1,NB / N-B,Miramichi,Gordon's wharf,47.079645,-65.393156,2017-08-01 00:00:00-03:00,,,7.06,,,,18.43,,20.9,0,0,0,0
9463,2017,8,1,NS / N-É,Cheticamp,Gretchen Beach,46.619467,-61.026367,2017-08-01 00:00:00-03:00,,,10.19,,,,26.52,,22.8,0,0,0,0
9611,2017,8,1,NS / N-É,Tatamagouche,Hamelton Lane,45.760967,-63.188167,2017-08-01 00:00:00-03:00,,,8.02,,,,28.3,,20.2,0,0,0,0
9554,2017,8,1,PE / Î-P-É,Pinette,Harbour,46.058417,-62.928533,2017-08-01 00:00:00-03:00,,,9.3,,,,27.55,,24.7,0,0,0,0
9540,2017,8,1,NB / N-B,Cap-Pelé,Harbour Shore Rd.,46.17319,-64.16438,2017-08-01 00:00:00-03:00,,,5.49,,,,27.3,,21.0,0,0,0,0
9488,2017,8,1,PE / Î-P-É,Enmore,Higgin's wharf,46.54865,-64.08741,2017-08-01 00:00:00-03:00,,,7.4,,,,27.9,,22.4,0,0,0,0
9492,2017,8,1,PE / Î-P-É,Hillsborough,Hillsborough Hospital,46.253637326,-63.098152896,2017-08-01 00:00:00-03:00,,,7.35,,,,27.41,,24.4,0,0,0,0
9493,2017,8,1,PE / Î-P-É,Hillsborough,Horton Park,46.242433,-63.090807999,2017-08-01 00:00:00-03:00,,,8.2,,,,27.53,,21.5,0,0,0,0
9535,2017,8,1,NB / N-B,Néguac,Ile-aux-foins,47.230688,-65.075657,2017-08-01 00:00:00-03:00,,,9.38,,,,25.78,,24.1,0,0,0,0
9583,2017,8,1,NB / N-B,Shediac River,Indian Point,46.273319,-64.56477,2017-08-01 00:00:00-03:00,,,7.65,,,,27.07,,19.2,0,0,0,0
9442,2017,8,1,NB / N-B,Bouctouche,Info Center,46.471729,-64.714365,2017-08-01 00:00:00-03:00,,,6.98,,,,25.12,,22.9,0,0,0,0
9556,2017,8,1,NB / N-B,Pokemouche,Inkerman Ferry,47.67764,-64.81683,2017-08-01 00:00:00-03:00,,,5.12,,,,16.58,,19.1,0,0,0,0
9624,2017,8,1,PE / Î-P-É,Trout River,Inn on the Pier,46.46921,-63.45003,2017-08-01 00:00:00-03:00,,,10.59,,,,25.15,,22.8,0,0,0,0
9497,2017,8,1,NB / N-B,Cape Jourimain,Interpretive Center,46.160933,-63.8128,2017-08-01 00:00:00-03:00,,,7.85,,,,28.09,,20.1,0,0,0,0
9568,2017,8,1,NB / N-B,Richibouctou,Irving,46.646119,-64.875349,2017-08-01 00:00:00-03:00,,,6.96,,,,23.82,,21.4,0,0,0,0
9449,2017,8,1,PE / Î-P-É,Brudenell-Montague,Island East,46.197824,-62.578086,2017-08-01 00:00:00-03:00,,,7.87,,,,25.25,,20.1,0,0,0,0
9613,2017,8,1,NS / N-É,Tatamagouche,Island Road,45.756033,-63.339,2017-08-01 00:00:00-03:00,,,7.9,,,,27.66,,18.3,0,0,0,0
9450,2017,8,1,PE / Î-P-É,Brudenell-Montague,Island West,46.197877,-62.578434,2017-08-01 00:00:00-03:00,,,7.02,,,,26.33,,19.9,0,0,0,0
9570,2017,8,1,NB / N-B,Richibouctou,Jardine Park,46.665292,-64.861867,2017-08-01 00:00:00-03:00,,,6.97,,,,24.03,,18.5,0,0,0,0
9585,2017,8,1,PE / Î-P-É,Souris,Joe Carter 100%,46.35015,-62.2796,2017-08-01 00:00:00-03:00,,,8.12,,,,25.37,,20.2,0,0,0,0
9511,2017,8,1,PE / Î-P-É,Malpèque Bay,Keirs Shore,46.525798,-63.697348999,2017-08-01 00:00:00-03:00,,,8.2,,,,24.52,,25.0,0,0,0,0
9538,2017,8,1,NB / N-B,Cap-Pelé,Kouchibouguac River,46.21546,-64.36419,2017-08-01 00:00:00-03:00,,,6.74,,,,27.05,,21.1,0,0,0,0
9551,2017,8,1,PE / Î-P-É,Pinette,Larson Drive,46.061033,-62.916083,2017-08-01 00:00:00-03:00,,,8.02,,,,26.43,,24.8,0,0,0,0
9606,2017,8,1,NB / N-B,Tabusintac,Left side of wharf,47.341712,-64.965766,2017-08-01 00:00:00-03:00,,,7.84,,,,22.82,,21.3,0,0,0,0
9467,2017,8,1,NB / N-B,Cocagne,Lighthouse,46.335807,-64.615219,2017-08-01 00:00:00-03:00,,,9.4,,,,26.35,,23.1,0,0,0,0
9597,2017,8,1,PE / Î-P-É,Summerside,Linkletter Provincial Park,46.398003,-63.857097,2017-08-01 00:00:00-03:00,,,7.94,,,,26.56,,19.3,0,0,0,0
9578,2017,8,1,NB / N-B,Scoudouc River,Lobster,46.218937,-64.554866,2017-08-01 00:00:00-03:00,,,6.93,,,,26.56,,20.3,0,0,0,0
9518,2017,8,1,PE / Î-P-É,Mill River,Long Creek,46.763,-64.146667,2017-08-01 00:00:00-03:00,,,10.04,,,,23.73,,24.2,0,0,0,0
9544,2017,8,1,NS / N-É,Pictou,Lyon's Brook,45.67583,-62.74132,2017-08-01 00:00:00-03:00,,,7.28,,,,27.12,,21.8,0,0,0,0
9528,2017,8,1,PE / Î-P-É,Murray River,Machons Point,46.018891,-62.511072,2017-08-01 00:00:00-03:00,,,6.6,,,,27.09,,19.3,0,0,0,0
9501,2017,8,1,NS / N-É,Mabou,MacLean's Point,46.07815,-61.455567,2017-08-01 00:00:00-03:00,,,8.07,,,,24.22,,23.5,0,0,0,0
9476,2017,8,1,PE / Î-P-É,Brackley/Covehead,MacMillan's Point,46.420833333333334,-63.1658333333333,2017-08-01 00:00:00-03:00,,,,,,,,,,0,0,0,0
9504,2017,8,1,NS / N-É,Mabou,MacPhee's Point,46.082867,-61.441933,2017-08-01 00:00:00-03:00,,,7.9,,,,25.21,,23.5,0,0,0,0
9614,2017,8,1,NS / N-É,Tatamagouche,Malagash Centre,45.77285,-63.305167,2017-08-01 00:00:00-03:00,,,8.16,,,,27.98,,17.8,0,0,0,0
9531,2017,8,1,NB / N-B,Néguac,Malpec Road,47.277433,-65.017733,2017-08-01 00:00:00-03:00,,,6.99,,,,24.64,,21.1,0,0,0,0
9472,2017,8,1,PE / Î-P-É,Brackley/Covehead,Marcie's,46.422222222222224,-63.1433333333333,2017-08-01 00:00:00-03:00,,,10.2,,,,22.7,,22.4,0,0,0,0
9441,2017,8,1,NB / N-B,Bouctouche,Marina,46.475972,-64.710486,2017-08-01 00:00:00-03:00,,,7.21,,,,25.09,,22.5,0,0,0,0
9455,2017,8,1,NB / N-B,Caraquet,Marina,47.802127,-64.874018,2017-08-01 00:00:00-03:00,,,7.27,,,,26.57,,19.2,0,0,0,0
9548,2017,8,1,NS / N-É,Pictou,Marina,45.6829,-62.691,2017-08-01 00:00:00-03:00,,,7.8,,,,27.42,,20.9,0,0,0,0
9470,2017,8,1,NB / N-B,Cocagne,Marina Beach Cape,46.35647,-64.573946,2017-08-01 00:00:00-03:00,,,8.4,,,,27.21,,23.2,0,0,0,0
9475,2017,8,1,PE / Î-P-É,Brackley/Covehead,Mary's,46.416111111111114,-63.1655555555556,2017-08-01 00:00:00-03:00,,,,,,,,,,0,0,0,0
9483,2017,8,1,PE / Î-P-É,Enmore,McGees Field,46.62024,-64.08209,2017-08-01 00:00:00-03:00,,,6.73,,,,27.18,,18.4,0,0,0,0
9571,2017,8,1,NB / N-B,Richibouctou,McGuire Beach,46.692181,-64.824549,2017-08-01 00:00:00-03:00,,,7.77,,,,25.34,,21.9,0,0,0,0
9532,2017,8,1,NB / N-B,Néguac,McLeod Road,47.263633,-65.04365,2017-08-01 00:00:00-03:00,,,7.34,,,,25.31,,20.9,0,0,0,0
9517,2017,8,1,PE / Î-P-É,Mill River,Meggison Creek,46.773778,-64.126831,2017-08-01 00:00:00-03:00,,,9.17,,,,24.58,,23.4,0,0,0,0
9522,2017,8,1,NB / N-B,Miramichi,Middle Island,47.057687,-65.426951,2017-08-01 00:00:00-03:00,,,7.01,,,,15.28,,21.5,0,0,0,0
9512,2017,8,1,PE / Î-P-É,Malpèque Bay,Montgomery Road,46.559339432,-63.711283524,2017-08-01 00:00:00-03:00,,,8.57,,,,26.28,,23.3,0,0,0,0
9566,2017,8,1,NS / N-É,Pugwash,Mundle's,45.8738,-63.653333,2017-08-01 00:00:00-03:00,,,7.83,,,,27.63,,18.4,0,0,0,0
9520,2017,8,1,NB / N-B,Miramichi,Murdock beach,47.074723,-65.33653,2017-08-01 00:00:00-03:00,,,6.96,,,,19.97,,20.6,0,0,0,0
9505,2017,8,1,NS / N-É,Mabou,Murphy's Point,46.07235,-61.413583,2017-08-01 00:00:00-03:00,,,9.44,,,,23.2,,22.7,0,0,0,0
9500,2017,8,1,NB / N-B,Cape Jourimain,Murray Beach,46.18005,-63.985433,2017-08-01 00:00:00-03:00,,,7.66,,,,27.32,,20.5,0,0,0,0
9429,2017,8,1,NS / N-É,Antigonish,Naveen Lane,45.635338,-61.904481,2017-08-01 00:00:00-03:00,,,6.58,,,,24.64,,21.2,0,0,0,0
9480,2017,8,1,NB / N-B,Eel Ground,Nelson Road,46.96865,-65.55928,2017-08-01 00:00:00-03:00,,,7.05,,,,10.1,,20.5,0,0,0,0
9608,2017,8,1,NB / N-B,Tabusintac,Next to bridge,47.331656,-65.009059,2017-08-01 00:00:00-03:00,,,6.77,,,,18.64,,21.6,0,0,0,0
9525,2017,8,1,PE / Î-P-É,Murray River,Nicolle Cove,46.023203,-62.537107,2017-08-01 00:00:00-03:00,,,5.57,,,,26.67,,21.3,0,0,0,0
9523,2017,8,1,NB / N-B,Miramichi,Oak Point,47.116738,-65.266799,2017-08-01 00:00:00-03:00,,,7.71,,,,23.46,,20.9,0,0,0,0
9508,2017,8,1,PE / Î-P-É,Malpèque Bay,Old Ferry Road,46.512100991,-63.888895787,2017-08-01 00:00:00-03:00,,,5.4,,,,26.74,,21.6,0,0,0,0
9464,2017,8,1,NS / N-É,Cheticamp,Opposite Church,46.627867,-61.021067,2017-08-01 00:00:00-03:00,,,10.94,,,,26.53,,23.5,0,0,0,0
9439,2017,8,1,PE / Î-P-É,Basin Head,Opposite House,46.385205,-62.116711,2017-08-01 00:00:00-03:00,,,8.8,,,,26.8,,22.0,0,0,0,0
9474,2017,8,1,PE / Î-P-É,Brackley/Covehead,Osprey Point,46.411944444444444,-63.1836111111111,2017-08-01 00:00:00-03:00,,,7.49,,,,22.48,,19.4,0,0,0,0
9600,2017,8,1,PE / Î-P-É,Summerside,Oyster Launch,46.383956,-63.758716,2017-08-01 00:00:00-03:00,,,7.6,,,,25.05,,21.8,0,0,0,0
9565,2017,8,1,NS / N-É,Pugwash,Pagweak Camp,45.853717,-63.675933,2017-08-01 00:00:00-03:00,,,7.35,,,,27.05,,18.4,0,0,0,0
9619,2017,8,1,NB / N-B,Tracadie,Parc Val Comeau,47.473463,-64.873712,2017-08-01 00:00:00-03:00,,,8.56,,,,25.15,,18.7,0,0,0,0
9552,2017,8,1,PE / Î-P-É,Pinette,Park Boat Launch,46.054833,-62.9105,2017-08-01 00:00:00-03:00,,,9.49,,,,27.56,,22.7,0,0,0,0
9595,2017,8,1,NB / N-B,St-Louis de Kent,Park North,46.75123,-64.951922,2017-08-01 00:00:00-03:00,,,8.07,,,,19.58,,21.3,0,0,0,0
9596,2017,8,1,NB / N-B,St-Louis de Kent,Park South,46.750968,-64.949386,2017-08-01 00:00:00-03:00,,,9.01,,,,19.1,,23.2,0,0,0,0
9451,2017,8,1,PE / Î-P-É,Brudenell-Montague,Parker's Point,46.183691,-62.543005,2017-08-01 00:00:00-03:00,,,7.59,,,,24.59,,20.0,0,0,0,0
9588,2017,8,1,PE / Î-P-É,Souris,Paul Deveau,46.37034,-62.27871,2017-08-01 00:00:00-03:00,,,9.25,,,,23.93,,20.4,0,0,0,0
9586,2017,8,1,PE / Î-P-É,Souris,Paul Gallant 50%,46.35741,-62.27969,2017-08-01 00:00:00-03:00,,,8.77,,,,25.65,,20.3,0,0,0,0
9453,2017,8,1,NB / N-B,Caraquet,Pecherie St-Paul,47.808815,-64.849468,2017-08-01 00:00:00-03:00,,,7.85,,,,26.46,,18.3,0,0,0,0
9460,2017,8,1,NS / N-É,Cheticamp,Pointe a Cochon,46.615083,-61.0237,2017-08-01 00:00:00-03:00,,,8.34,,,,26.6,,20.6,0,0,0,0
9593,2017,8,1,NB / N-B,St-Louis de Kent,Pointe a Donatien,46.746883,-64.970356,2017-08-01 00:00:00-03:00,,,8.33,,,,18.46,,22.4,0,0,0,0
9555,2017,8,1,NB / N-B,Pokemouche,Pointe a Godin,47.68707,-64.8487,2017-08-01 00:00:00-03:00,,,6.67,,,,12.86,,21.2,0,0,0,0
9592,2017,8,1,NB / N-B,St-Louis de Kent,Pointe a Maxime,46.766254,-64.911184,2017-08-01 00:00:00-03:00,,,7.5,,,,23.32,,18.5,0,0,0,0
9524,2017,8,1,NB / N-B,Miramichi,Pointe aux Carr,47.077419,-65.207023,2017-08-01 00:00:00-03:00,,,8.38,,,,22.66,,19.9,0,0,0,0
9557,2017,8,1,NB / N-B,Pokemouche,Pointe des Mazeroles,47.67109,-64.8083,2017-08-01 00:00:00-03:00,,,6.41,,,,20.26,,20.2,0,0,0,0
9486,2017,8,1,PE / Î-P-É,Enmore,Portage Shore,46.578,-64.05475,2017-08-01 00:00:00-03:00,,,7.93,,,,27.77,,18.0,0,0,0,0
9545,2017,8,1,NS / N-É,Pictou,Power Plant,45.62596,-62.64932,2017-08-01 00:00:00-03:00,,,6.14,,,,23.8,,31.2,0,0,0,0
9506,2017,8,1,NS / N-É,Mabou,Priest Point,46.073633,-61.405183,2017-08-01 00:00:00-03:00,,,9.53,,,,21.53,,21.4,0,0,0,0
9444,2017,8,1,NB / N-B,Bouctouche,Pub by the bridge,46.471865,-64.719819,2017-08-01 00:00:00-03:00,,,7.71,,,,23.76,,22.9,0,0,0,0
9618,2017,8,1,NB / N-B,Tracadie,Quai Val Comeau,47.464352,-64.886087,2017-08-01 00:00:00-03:00,,,7.03,,,,24.3,,20.4,0,0,0,0
9491,2017,8,1,PE / Î-P-É,Hillsborough,Queen Elizabeth Park,46.2482,-63.1535,2017-08-01 00:00:00-03:00,,,7.46,,,,27.36,,22.9,0,0,0,0
9507,2017,8,1,PE / Î-P-É,Malpèque Bay,Ramsay Farm,46.5862,-63.852168,2017-08-01 00:00:00-03:00,,,7.04,,,,26.68,,20.2,0,0,0,0
9513,2017,8,1,PE / Î-P-É,Mill River,Resort,46.749806,-64.151997,2017-08-01 00:00:00-03:00,,,5.18,,,,22.5,,21.3,0,0,0,0
9452,2017,8,1,PE / Î-P-É,Brudenell-Montague,Richmond Street,46.181156,-62.539139,2017-08-01 00:00:00-03:00,,,7.62,,,,25.77,,20.1,0,0,0,0
9605,2017,8,1,NB / N-B,Tabusintac,Right side of wharf,47.340217,-64.972078,2017-08-01 00:00:00-03:00,,,7.21,,,,22.14,,21.6,0,0,0,0
9489,2017,8,1,PE / Î-P-É,Hillsborough,Rocky Point,46.20736,-63.14716,2017-08-01 00:00:00-03:00,,,8.09,,,,27.73,,20.7,0,0,0,0
9610,2017,8,1,NS / N-É,Tatamagouche,Rollie's,45.75675,-63.084417,2017-08-01 00:00:00-03:00,,,8.89,,,,27.09,,20.6,0,0,0,0
9446,2017,8,1,NB / N-B,Bouctouche,Route 11,46.462419,-64.726601,2017-08-01 00:00:00-03:00,,,8.45,,,,24.65,,24.0,0,0,0,0
9458,2017,8,1,NB / N-B,Caraquet,Rue Blanchard,47.817719,-64.99786,2017-08-01 00:00:00-03:00,,,7.9,,,,23.75,,25.6,0,0,0,0
9575,2017,8,1,NB / N-B,Scoudouc River,Rue Dock,46.220777,-64.552474,2017-08-01 00:00:00-03:00,,,6.53,,,,26.66,,20.1,0,0,0,0
9457,2017,8,1,NB / N-B,Caraquet,Rue Dugas,47.777114,-65.029957,2017-08-01 00:00:00-03:00,,,8.55,,,,25.62,,25.7,0,0,0,0
9456,2017,8,1,NB / N-B,Caraquet,Rue Foley,47.794929,-64.942717,2017-08-01 00:00:00-03:00,,,8.29,,,,26.25,,20.9,0,0,0,0
9617,2017,8,1,NB / N-B,Tracadie,Rue McLaughlin,47.489795,-64.885233,2017-08-01 00:00:00-03:00,,,7.23,,,,25.97,,17.0,0,0,0,0
9432,2017,8,1,NS / N-É,Antigonish,Seabright,45.67237,-61.90695,2017-08-01 00:00:00-03:00,,,7.5,,,,27.01,,22.3,0,0,0,0
9582,2017,8,1,NB / N-B,Shediac River,Seagull,46.270801,-64.574252,2017-08-01 00:00:00-03:00,,,7.06,,,,26.28,,20.7,0,0,0,0
9562,2017,8,1,NS / N-É,Pugwash,Seagull Parking,45.845167000000004,-63.66395,2017-08-01 00:00:00-03:00,,,7.12,,,,27.4,,19.4,0,0,0,0
9559,2017,8,1,NB / N-B,Pokemouche,Sentier NB,47.67381,-64.8209,2017-08-01 00:00:00-03:00,,,6.83,,,,2.76,,21.5,0,0,0,0
9440,2017,8,1,PE / Î-P-É,Basin Head,Shambles,46.387051,-62.114297,2017-08-01 00:00:00-03:00,,,7.18,,,,24.25,,21.4,0,0,0,0
9526,2017,8,1,PE / Î-P-É,Murray River,Sharams Point,46.020309,-62.525012,2017-08-01 00:00:00-03:00,,,6.35,,,,26.87,,22.4,0,0,0,0
9435,2017,8,1,PE / Î-P-É,Basin Head,Slipway,46.383134,-62.11238,2017-08-01 00:00:00-03:00,,,9.37,,,,27.12,,22.0,0,0,0,0
9437,2017,8,1,PE / Î-P-É,Basin Head,Small Creek,46.387556,-62.106785,2017-08-01 00:00:00-03:00,,,7.72,,,,27.15,,20.9,0,0,0,0
9553,2017,8,1,PE / Î-P-É,Pinette,South Branch Wharf,46.053333,-62.9111,2017-08-01 00:00:00-03:00,,,9.42,,,,27.74,,22.3,0,0,0,0
9482,2017,8,1,NB / N-B,Eel Ground,South Esk,46.95805,-65.62209,2017-08-01 00:00:00-03:00,,,7.48,,,,6.49,,21.7,0,0,0,0
9498,2017,8,1,NB / N-B,Cape Jourimain,Spencer's Point,46.15749,-63.90953,2017-08-01 00:00:00-03:00,,,8.14,,,,27.83,,19.0,0,0,0,0
9602,2017,8,1,PE / Î-P-É,Summerside,Stavert Point Road,46.357944,-63.731488,2017-08-01 00:00:00-03:00,,,6.74,,,,23.05,,21.5,0,0,0,0
9477,2017,8,1,NB / N-B,Eel Ground,Strawberry Marsh,46.98624,-65.57426,2017-08-01 00:00:00-03:00,,,7.19,,,,0.479861111111111,,20.9,0,0,0,0
9533,2017,8,1,NB / N-B,Néguac,Sullivan Road,47.254983,-65.063167,2017-08-01 00:00:00-03:00,,,7.68,,,,25.3,,21.8,0,0,0,0
9539,2017,8,1,NB / N-B,Cap-Pelé,Tedish River,46.22523,-64.29596,2017-08-01 00:00:00-03:00,,,7.13,,,,27.17,,20.8,0,0,0,0
9433,2017,8,1,NS / N-É,Antigonish,Terra Tory Drive,45.65924,-61.913261,2017-08-01 00:00:00-03:00,,,7.34,,,,25.36,,22.9,0,0,0,0
9620,2017,8,1,PE / Î-P-É,Trout River,Thymehill,46.44482,-63.47322,2017-08-01 00:00:00-03:00,,,10.73,,,,20.35,,23.7,0,0,0,0
9587,2017,8,1,PE / Î-P-É,Souris,Tim Campbell,46.36766,-62.28626,2017-08-01 00:00:00-03:00,,,8.01,,,,25.38,,21.4,0,0,0,0
9612,2017,8,1,NS / N-É,Tatamagouche,Tim Horton,45.735417,-63.318383,2017-08-01 00:00:00-03:00,,,7.39,,,,27.72,,19.3,0,0,0,0
9622,2017,8,1,PE / Î-P-É,Trout River,Tommy Gallant,46.448448,-63.465789,2017-08-01 00:00:00-03:00,,,10.33,,,,22.91,,21.3,0,0,0,0
9445,2017,8,1,NB / N-B,Bouctouche,Treatment Plant outlet,46.46733,-64.722576,2017-08-01 00:00:00-03:00,,,7.98,,,,24.16,,23.3,0,0,0,0
9621,2017,8,1,PE / Î-P-É,Trout River,Trout River Park,46.42157,-63.44011,2017-08-01 00:00:00-03:00,,,10.54,,,,14.8,,21.5,0,0,0,0
9623,2017,8,1,PE / Î-P-É,Trout River,Trout River Road,46.458182,-63.461426,2017-08-01 00:00:00-03:00,,,11.12,,,,23.66,,21.8,0,0,0,0
9515,2017,8,1,PE / Î-P-É,Mill River,Waterview Rd.,46.760927,-64.12676,2017-08-01 00:00:00-03:00,,,7.45,,,,23.47,,20.4,0,0,0,0
9490,2017,8,1,PE / Î-P-É,Hillsborough,West River/Causeway,46.188544,-63.232663,2017-08-01 00:00:00-03:00,,,7.65,,,,26.65,,22.0,0,0,0,0
9580,2017,8,1,NB / N-B,Shediac River,Wetland,46.274617,-64.571954,2017-08-01 00:00:00-03:00,,,5.97,,,,26.47,,20.0,0,0,0,0
9591,2017,8,1,NB / N-B,St-Louis de Kent,Wharf,46.757328,-64.917023,2017-08-01 00:00:00-03:00,,,9.66,,,,21.05,,22.4,0,0,0,0
9447,2017,8,1,PE / Î-P-É,Brudenell-Montague,Wightman's Point,46.163516,-62.532719,2017-08-01 00:00:00-03:00,,,6.26,,,,25.68,,18.5,0,0,0,0
9481,2017,8,1,NB / N-B,Eel Ground,Wilson Point,46.96419,-65.59513,2017-08-01 00:00:00-03:00,,,7.81,,,,8.32,,21.5,0,0,0,0
9342,2017,7,1,NB / N-B,Cap-Pelé,Aboujagane River,46.22155,-64.39916,2017-07-01 00:00:00-03:00,,,7.3,,,,26.44,,19.4,0,0,0,0
9243,2017,7,1,PE / Î-P-É,Basin Head,Across Lagoon,46.384835,-62.109143,2017-07-01 00:00:00-03:00,,,8.03,,,,26.51,,18.9,0,0,0,0
9241,2017,7,1,PE / Î-P-É,Basin Head,Across Slipway,46.382572,-62.110019,2017-07-01 00:00:00-03:00,,,8.0,,,,26.5,,18.7,0,0,0,0
9253,2017,7,1,PE / Î-P-É,Brudenell-Montague,Aitken Point,46.172776,-62.547863,2017-07-01 00:00:00-03:00,,,7.41,,,,26.36,,17.6,0,0,0,0
9319,2017,7,1,PE / Î-P-É,Mill River,Al Peter's,46.758934,-64.141007,2017-07-01 00:00:00-03:00,,,4.75,,,,22.53,,20.2,0,0,0,0
9388,2017,7,1,NB / N-B,Shediac River,Albert Gallant,46.279518,-64.572578,2017-07-01 00:00:00-03:00,,,5.15,,,,25.59,,22.5,0,0,0,0
9418,2017,7,1,NB / N-B,Tracadie,Allee des Canards,47.527732,-64.894019,2017-07-01 00:00:00-03:00,,,6.32,,,,24.51,,23.4,0,0,0,0
9283,2017,7,1,NB / N-B,Eel Ground,Anderson's Bridge,46.96733,-65.59996,2017-07-01 00:00:00-03:00,,,7.2,,,,3.43,,23.6,0,0,0,0
9304,2017,7,1,NB / N-B,Cape Jourimain,Annes Acres,46.15355,-63.846567,2017-07-01 00:00:00-03:00,,,8.19,,,,26.8,,19.4,0,0,0,0
9299,2017,7,1,PE / Î-P-É,Hillsborough,Aptose Road,46.219466,-63.113672,2017-07-01 00:00:00-03:00,,,7.94,,,,26.7,,24.9,0,0,0,0
9235,2017,7,1,NS / N-É,Antigonish,Aveline Ave,45.667195,-61.884295,2017-07-01 00:00:00-03:00,,,7.66,,,,25.59,,21.1,0,0,0,0
9405,2017,7,1,PE / Î-P-É,Summerside,Bakers Launch,46.369117,-63.755742,2017-07-01 00:00:00-03:00,,,10.13,,,,21.9,,22.3,0,0,0,0
9411,2017,7,1,NB / N-B,Tabusintac,Bayshore,47.376278,-64.938145,2017-07-01 00:00:00-03:00,,,7.43,,,,21.87,,23.0,0,0,0,0
9315,2017,7,1,PE / Î-P-É,Malpèque Bay,Beech Point,46.494013,-63.747559001,2017-07-01 00:00:00-03:00,,,9.13,,,,27.31,,30.0,0,0,0,0
9248,2017,7,1,NB / N-B,Bouctouche,Behind the takeout,46.469231,-64.714104,2017-07-01 00:00:00-03:00,,,7.45,,,,19.5,,21.1,0,0,0,0
9314,2017,7,1,PE / Î-P-É,Malpèque Bay,Belmont Park,46.5153,-63.8311,2017-07-01 00:00:00-03:00,,,8.49,,,,27.48,,26.4,0,0,0,0
9332,2017,7,1,PE / Î-P-É,Murray River,Big Basin,46.046019,-62.537162,2017-07-01 00:00:00-03:00,,,7.67,,,,27.45,,20.8,0,0,0,0
9402,2017,7,1,PE / Î-P-É,Summerside,Boardwalk,46.395416,-63.8017,2017-07-01 00:00:00-03:00,,,8.14,,,,26.4,,21.0,0,0,0,0
9352,2017,7,1,NS / N-É,Pictou,Boat Harbour,45.67576,-62.63784,2017-07-01 00:00:00-03:00,,,8.37,,,,27.45,,20.5,0,0,0,0
9321,2017,7,1,PE / Î-P-É,Mill River,Boat Launch,46.780395,-64.112115,2017-07-01 00:00:00-03:00,,,7.58,,,,23.46,,20.7,0,0,0,0
9348,2017,7,1,NS / N-É,Pictou,Boggs Brook,45.64062,-62.72919,2017-07-01 00:00:00-03:00,,,8.74,,,,27.18,,23.3,0,0,0,0
9379,2017,7,1,NB / N-B,Scoudouc River,Breakwater,46.217178,-64.551758,2017-07-01 00:00:00-03:00,,,6.75,,,,25.7,,20.3,0,0,0,0
9270,2017,7,1,NB / N-B,Cocagne,Breau Road,46.36724,-64.61738,2017-07-01 00:00:00-03:00,,,5.87,,,,20.87,,21.2,0,0,0,0
9278,2017,7,1,PE / Î-P-É,Brackley/Covehead,Brewster,46.41694444444445,-63.1908333333333,2017-07-01 00:00:00-03:00,,,8.89,,,,24.85,,23.0,0,0,0,0
9369,2017,7,1,NS / N-É,Pugwash,Brickyard,45.85025,-63.66695,2017-07-01 00:00:00-03:00,,,8.27,,,,26.65,,19.8,0,0,0,0
9385,2017,7,1,NB / N-B,Shediac River,Bridge in,46.273467,-64.576255,2017-07-01 00:00:00-03:00,,,6.65,,,,23.94,,22.3,0,0,0,0
9381,2017,7,1,NB / N-B,Scoudouc River,Bridge out,46.219562,-64.553471,2017-07-01 00:00:00-03:00,,,9.26,,,,25.93,,20.7,0,0,0,0
9324,2017,7,1,NB / N-B,Miramichi,Burnt Church,47.193236,-65.136361,2017-07-01 00:00:00-03:00,,,6.51,,,,23.4,,25.1,0,0,0,0
9347,2017,7,1,NB / N-B,Cap-Pelé,Camp Ta-Wa-Si,46.1827,-64.11454,2017-07-01 00:00:00-03:00,,,8.34,,,,26.96,,21.8,0,0,0,0
9413,2017,7,1,NS / N-É,Tatamagouche,Cape John,45.79205,-63.103233,2017-07-01 00:00:00-03:00,,,8.8,,,,27.13,,26.8,0,0,0,0
9300,2017,7,1,NB / N-B,Cape Jourimain,Cape Tourmentine,46.13285,-63.784783,2017-07-01 00:00:00-03:00,,,7.74,,,,26.15,,20.2,0,0,0,0
9372,2017,7,1,NB / N-B,Richibouctou,Carson Landing,46.644702,-64.870099,2017-07-01 00:00:00-03:00,,,7.65,,,,23.04,,22.0,0,0,0,0
9267,2017,7,1,NS / N-É,Cheticamp,Causeway,46.60239,-61.0345,2017-07-01 00:00:00-03:00,,,8.8,,,,27.68,,21.8,0,0,0,0
9393,2017,7,1,PE / Î-P-É,Souris,Causeway East (50%),46.35652,-62.27541,2017-07-01 00:00:00-03:00,,,7.72,,,,26.71,,22.2,0,0,0,0
9355,2017,7,1,PE / Î-P-É,Pinette,Causeway North,46.06005,-62.90985,2017-07-01 00:00:00-03:00,,,7.58,,,,26.24,,20.4,0,0,0,0
9354,2017,7,1,PE / Î-P-É,Pinette,Causeway South,46.058533,-62.90725,2017-07-01 00:00:00-03:00,,,7.19,,,,25.29,,20.4,0,0,0,0
9408,2017,7,1,NB / N-B,Tabusintac,Cemetary,47.332778,-64.995865,2017-07-01 00:00:00-03:00,,,6.36,,,,16.31,,20.0,0,0,0,0
9334,2017,7,1,PE / Î-P-É,Murray River,Cemetery,46.008167,-62.514202,2017-07-01 00:00:00-03:00,,,8.99,,,,26.61,,20.2,0,0,0,0
9365,2017,7,1,NB / N-B,Pokemouche,Centre Plein Air,47.67657,-64.84812,2017-07-01 00:00:00-03:00,,,10.77,,,,6.88,,22.7,0,0,0,0
9398,2017,7,1,NB / N-B,St-Louis de Kent,Ch. Ghislain South,46.747258,-64.963693,2017-07-01 00:00:00-03:00,,,8.9,,,,15.16,,24.0,0,0,0,0
9377,2017,7,1,NB / N-B,Richibouctou,Chalet du Havre,46.689667,-64.858834,2017-07-01 00:00:00-03:00,,,9.88,,,,25.08,,24.8,0,0,0,0
9419,2017,7,1,NB / N-B,Tracadie,Chalets des 2 Rivieres,47.51692,-64.899713,2017-07-01 00:00:00-03:00,,,7.2,,,,12.64,,23.6,0,0,0,0
