site,province,station,station latitude,station longitude,total number of samples,seasons in operation,list of species caught,list of SAV recorded,total number of specimens caught,mean annual number of specimens caught,standard deviation for annual number of specimens caught
Cap-Pelé,NB,Aboujagane River,46.22155,-64.39916,32,"2009, 2010, 2011, 2012, 2013, 2014, 2015, 2016, 2017, 2018, 2019","EEL, SLA, SILV, BSS, CUN, FLOU, 4SS, GAST, GSH, GCR, GRUB, MCR, MUM, 9SS, RCR, SSH, SCU, SFL, 3SS, UNK, WNFL, WFL","BRFU, ZOMA, GRAL, FUCU, RUMA",26120,2374.55,262.6482058213835
Trout River,PE,Across Hinton Lane,46.442195,-63.469822,1,2019,"SILV, BSS, 4SS, GSH, MUM, 9SS, SSH, SFL, 3SS, WFL","ZOMA, GRAL",2480,2480.00,426.14105645900867
Basin Head,PE,Across Lagoon,46.384835,-62.109143,66,"2004, 2005, 2006, 2007, 2008, 2009, 2010, 2011, 2012, 2013, 2014, 2015, 2016, 2017, 2018, 2019","ALW, ALOSA , EEL, SLA, SILV, TOM, KIL, BSS, CUN, FLOU, 4SS, GAST, GSH, GCR, GRUB, MCR, MUM, 9SS, PIP, SMEL, RCR, SSH, SCU, SFL, 3SS, WHHA, WFL","BRFU, COBR, CORE, ZOMA, GRAL, KELP, FUCU",52361,3272.56,427.5921964127896
Basin Head,PE,Across Slipway,46.382572,-62.110019,66,"2004, 2005, 2006, 2007, 2008, 2009, 2010, 2011, 2012, 2013, 2014, 2015, 2016, 2017, 2018, 2019","EEL, SLA, SILV, BSS, CUN, FLOU, 4SS, GAST, GSH, GCR, GRUB, MCR, MUM, 9SS, PIP, SMEL, RCR, SSH, SCU, SFL, 3SS, WHHA, WFL","BRFU, COBR, CORE, ZOMA, GRAL, KELP, FUCU, RUMA",56554,3534.63,524.0910115447688
Brudenell-Montague,PE,Aitken Point,46.172776,-62.547863,49,"2005, 2006, 2007, 2008, 2009, 2010, 2011, 2012, 2013, 2014, 2015, 2016, 2017, 2018, 2019","ALW, ALOSA , SILV, BSS, CUN, FLOU, 4SS, GAST, GSH, GCR, MUM, 9SS, RCR, SSH, SFL, 3SS, WFL","BRFU, COBR, CORE, ZOMA, GRAL, COFR, KELP, FUCU",32041,2136.07,404.0486017697077
Mill River,PE,Al Peter's,46.758934,-64.141007,58,"2004, 2005, 2006, 2007, 2008, 2009, 2010, 2011, 2012, 2013, 2014, 2015, 2016, 2017, 2018, 2019","EEL, SILV, KIL, BSS, FLOU, 4SS, GAST, GSH, GRUB, MCR, MUM, 9SS, PIP, SSH, SFL, 3SS, WFL","ZOMA, GRAL, RUMA",68060,4253.75,478.1469282618549
Shediac River,NB,Albert Gallant,46.279518,-64.572578,43,"2007, 2008, 2009, 2010, 2011, 2012, 2013, 2014, 2015, 2016, 2017, 2018, 2019","ALW, EEL, SILV, KIL, BSS, FLOU, 4SS, GSH, GCR, MCR, MUM, 9SS, SMEL, SSH, SFL, 3SS, WFL","BRFU, COBR, CORE, ZOMA, GRAL, RUMA",17222,1324.77,221.83340886550178
Tracadie,NB,Allee des Canards,47.527732,-64.894019,52,"2005, 2006, 2007, 2008, 2009, 2010, 2011, 2012, 2013, 2014, 2015, 2016, 2017, 2018","ALW, SILV, KIL, BSS, FLOU, 4SS, GAST, GSH, GRUB, MCR, MUM, 9SS, PIP, SMEL, RCR, SSH, SFL, SBA, 3SS, WFL","BRFU, COBR, CORE, ZOMA, GRAL, KELP, FUCU, RUMA",15899,1135.64,170.08196772645113
Eel Ground,NB,Anderson's Bridge,46.96733,-65.59996,39,"2008, 2009, 2010, 2011, 2012, 2013, 2014, 2015, 2016, 2017, 2018, 2019","ALW, EEL, SAL, SILV, TOM, KIL, BSS, BRST, BTR, CHU, CYPR, FLOU, 4SS, LACH, MCR, MUM, 9SS, PIP, SMEL, RCR, SSH, SFL, SBA, 3SS, UNK, WHSU","BRFU, ZOMA, GRAL, KELP",8080,673.33,102.62772077746962
Cape Jourimain,NB,Annes Acres,46.15355,-63.846567,51,"2005, 2006, 2007, 2008, 2009, 2010, 2011, 2012, 2013, 2014, 2015, 2016, 2017, 2018, 2019","ALW, SLA, SILV, KIL, BSS, FLOU, 4SS, GSH, GCR, MCR, MUM, 9SS, RCR, SSH, SFL, SBA, 3SS, UNK, WNFL, WFL","BRFU, COBR, CORE, ZOMA, GRAL, COFR, FUCU, RUMA",16250,1083.33,173.7323989329099
Hillsborough,PE,Aptose Road,46.219466,-63.113672,33,"2009, 2010, 2011, 2012, 2013, 2014, 2015, 2016, 2017, 2018, 2019","SILV, BSS, FLOU, 4SS, GSH, GCR, MCR, MUM, 9SS, SMEL, SSH, SFL, 3SS","BRFU, ZOMA, GRAL, FUCU, RUMA",41884,3807.64,1662.4835245407908
Antigonish,NS,Aveline Ave,45.667195,-61.884295,57,"2004, 2005, 2006, 2007, 2008, 2009, 2010, 2011, 2012, 2013, 2014, 2015, 2016, 2017, 2018, 2019","ALW, EEL, SAL, SILV, TOM, KIL, BSS, BTR, CUN, 4SS, GAST, GSH, GCR, MUM, 9SS, PIP, RCR, SSH, SFL, SBA, 3SS, WNFL, WFL, YEFL","BRFU, CORE, ZOMA, GRAL, FUCU",36071,2254.44,135.8524487532456
Dunk River,PE,Baker's Launch 50%,46.369117,-63.755742,3,2019,"SILV, BSS, 4SS, MUM, 9SS, SSH, SFL, 3SS, WFL",GRAL,531,531.00,54.37186147013813
Summerside,PE,Bakers Launch,46.369117,-63.755742,42,"2007, 2008, 2009, 2010, 2011, 2012, 2013, 2014, 2015, 2016, 2017, 2018","ALW, SILV, TOM, BSS, HER, BTR, FLOU, 4SS, GAST, GSH, GCR, GRUB, MCR, MUM, 9SS, SMEL, RCR, GUN, SSH, SFL, 3SS, WFL","COBR, CORE, ZOMA, GRAL, COFR, FUCU, RUMA",17476,1456.33,330.0746264141841
Winter River,PE,Bald Eagle Lane 10%,46.376779,-63.05252,3,2019,"SILV, BSS, 4SS, GSH, MUM, PIP, SSH, SFL, 3SS, WFL","ZOMA, GRAL",3083,3083.00,616.3233443929818
Tabusintac,NB,Bayshore,47.376278,-64.938145,50,"2004, 2006, 2007, 2008, 2009, 2010, 2011, 2012, 2013, 2014, 2015, 2016, 2017, 2018, 2019","ALW, EEL, SLA, SILV, KIL, BSS, CUN, FLOU, 4SS, GSH, MCR, MUM, 9SS, PIP, RCR, SSH, SCU, SFL, SBA, 3SS, WFL","BRFU, COBR, CORE, ZOMA, GRAL, KELP, FUCU, RUMA",27424,1828.27,251.74398500835383
Dunk River,PE,Bayside road 100%,46.383017,-63.762294,2,2019,"SILV, BSS, 4SS, MCR, MUM, 9SS, SMEL, SSH, SFL, 3SS, WFL",,132,132.00,9.155708034847832
Malpèque Bay,PE,Beech Point,46.494013,-63.747559001,33,"2009, 2010, 2011, 2012, 2013, 2014, 2015, 2016, 2017, 2018, 2019","SILV, BSS, FLOU, 4SS, GSH, GCR, GRUB, MCR, MUM, 9SS, PIP, SSH, SFL, 3SS, WFL","BRFU, COBR, CORE, ZOMA, GRAL, COFR",19145,1740.45,204.0524177095465
Bouctouche,NB,Behind the takeout,46.469231,-64.714104,58,"2004, 2005, 2006, 2007, 2008, 2009, 2010, 2011, 2012, 2013, 2014, 2015, 2016, 2017, 2018, 2019","ALW, EEL, SILV, TOM, KIL, BSS, FLOU, 4SS, GSH, GCR, MCR, MUM, 9SS, PIP, SMEL, RCR, SSH, SFL, SBA, 3SS, WNFL, WFL","BRFU, COBR, ZOMA, GRAL, FUCU, RUMA",61010,3813.13,275.4785875364861
Malpèque Bay,PE,Belmont Park,46.5153,-63.8311,33,"2009, 2010, 2011, 2012, 2013, 2014, 2015, 2016, 2017, 2018, 2019","SILV, KIL, BSS, 4SS, GAST, GSH, MUM, 9SS, RCR, SSH, SFL, 3SS, UNK, WFL","BRFU, COBR, CORE, ZOMA, GRAL, COFR, FUCU",13886,1262.36,212.54157986423866
River Phillip,NS,Bergman's Point,45.861461,-63.713787,14,"2007, 2008, 2009","ALW, SILV, BSS, HER, CUN, 4SS, GSH, GCR, MCR, MUM, 9SS, RCR, SSH, SFL, SBA, 3SS, WFL","BRFU, CORE, ZOMA, GRAL, FUCU",4559,1519.67,174.9384326696495
Murray River,PE,Big Basin,46.046019,-62.537162,46,"2005, 2006, 2007, 2008, 2009, 2010, 2011, 2012, 2013, 2014, 2015, 2016, 2017","ALW, ALOSA , SILV, TOM, BSS, FLOU, 4SS, GSH, GCR, MCR, MUM, 9SS, PIP, RCR, SSH, SFL, 3SS, WFL","BRFU, COBR, ZOMA, GRAL, FUCU, RUMA",10175,782.69,148.57756152287456
Summerside,PE,Boardwalk,46.395416,-63.8017,41,"2007, 2008, 2009, 2010, 2011, 2012, 2013, 2014, 2015, 2016, 2017, 2018","ALW, ALOSA , SILV, BSS, CUN, FLOU, 4SS, GAST, GSH, GCR, MCR, MUM, 9SS, SMEL, RCR, SSH, SFL, 3SS, WFL","BRFU, COBR, CORE, ZOMA, GRAL, COFR, KELP, FUCU, RUMA",14095,1174.58,155.72749557197295
Pictou,NS,Boat Harbour,45.67576,-62.63784,57,"2004, 2005, 2006, 2007, 2008, 2009, 2010, 2011, 2012, 2013, 2014, 2015, 2016, 2017, 2018, 2019","ALW, EEL, SILV, TOM, BSS, FLOU, 4SS, GAST, GSH, GCR, MCR, MUM, 9SS, PIP, SMEL, RCR, SSH, SFL, SBA, 3SS, BAR, PER, WNFL, WFL, YEFL","BRFU, COBR, CORE, ZOMA, GRAL, KELP, FUCU",9181,573.81,86.12474341400575
Mill River,PE,Boat Launch,46.780395,-64.112115,55,"2004, 2005, 2006, 2007, 2008, 2009, 2010, 2011, 2012, 2013, 2014, 2015, 2016, 2017, 2018, 2019","SILV, BSS, BTR, CUN, FLOU, 4SS, GAST, GSH, MCR, MUM, 9SS, PIP, RCR, SSH, SFL, 3SS, WFL","BRFU, ZOMA, GRAL, COFR",44524,2782.75,230.23820383751053
River Phillip,NS,Boat Launch,45.85055,-63.739472,22,"2005, 2006, 2007, 2008, 2009","ALW, SILV, BSS, CUN, 4SS, GSH, GCR, MCR, MUM, 9SS, RCR, GUN, SSH, SCU, SFL, 3SS, WFL, YEFL","BRFU, ZOMA, GRAL, FUCU, RUMA",18544,3708.80,280.78703322035966
Pictou,NS,Boggs Brook,45.64062,-62.72919,58,"2004, 2005, 2006, 2007, 2008, 2009, 2010, 2011, 2012, 2013, 2014, 2015, 2016, 2017, 2018, 2019","ALW, SAL, SILV, KIL, BSS, HER, CUN, FLOU, 4SS, GAST, GSH, GCR, MUM, 9SS, PIP, SMEL, RCR, SSH, SFL, SBA, 3SS, PER, WFL","BRFU, COBR, CORE, ZOMA, GRAL, FUCU, RUMA",44977,2811.06,237.31534990052037
Scoudouc River,NB,Breakwater,46.217178,-64.551758,58,"2004, 2005, 2006, 2007, 2008, 2009, 2010, 2011, 2012, 2013, 2014, 2015, 2016, 2017, 2018, 2019","ALW, EEL, SILV, KIL, BSS, CUN, FLOU, 4SS, GAST, GSH, GCR, MCR, MUM, 9SS, SMEL, SSH, ROCK, SFL, SBA, 3SS, WNFL, WFL","BRFU, COBR, ZOMA, GRAL, RUMA",45209,2825.56,231.56785312349086
Cocagne,NB,Breau Road,46.36724,-64.61738,57,"2004, 2005, 2006, 2007, 2008, 2009, 2010, 2011, 2012, 2013, 2014, 2015, 2016, 2017, 2018, 2019","ALW, EEL, SLA, SILV, BSS, CUN, FLOU, 4SS, GAST, GSH, GCR, LCR, MCR, MUM, 9SS, SMEL, RCR, SSH, SCU, SFL, 3SS, WNFL, WFL","BRFU, COBR, CORE, ZOMA, GRAL, COFR, FUCU, RUMA",38119,2382.44,533.2425523796518
Brackley/Covehead,PE,Brewster,46.41694444444445,-63.1908333333333,23,"2011, 2012, 2013, 2014, 2015, 2016, 2017, 2018, 2019","EEL, SILV, KIL, BSS, CUN, FLOU, 4SS, GAST, GSH, GCR, MUM, 9SS, PIP, RCR, SSH, SFL, 3SS, WFL","BRFU, COBR, CORE, ZOMA, GRAL, RUMA",27012,3001.33,637.3720438866308
Pugwash,NS,Brickyard,45.85025,-63.66695,43,"2007, 2008, 2009, 2010, 2011, 2012, 2013, 2014, 2015, 2016, 2017, 2018, 2019","ALW, EEL, SILV, TOM, BSS, CUN, 4SS, GAST, GSH, GCR, MUM, 9SS, RCR, GUN, SSH, SCU, SFL, 3SS, WNFL, WFL","BRFU, CORE, ZOMA, GRAL, KELP, FUCU",7385,568.08,116.45548268770773
Shediac River,NB,Bridge in,46.273467,-64.576255,43,"2007, 2008, 2009, 2010, 2011, 2012, 2013, 2014, 2015, 2016, 2017, 2018, 2019","ALW, SILV, TOM, KIL, BSS, BRST, CUN, FLOU, 4SS, GSH, GCR, MCR, MUM, 9SS, SMEL, RCR, SSH, SCU, SFL, SBA, 3SS, WFL","ZOMA, GRAL, COFR, FUCU",22814,1754.92,170.57522064780105
Scoudouc River,NB,Bridge out,46.219562,-64.553471,58,"2004, 2005, 2006, 2007, 2008, 2009, 2010, 2011, 2012, 2013, 2014, 2015, 2016, 2017, 2018, 2019","ALW, SLA, SILV, TOM, BSS, CUN, FLOU, 4SS, GSH, GCR, LCR, MCR, MUM, 9SS, SMEL, SSH, SFL, SBA, 3SS, WFL","BRFU, COBR, CORE, ZOMA, GRAL, FUCU, RUMA",38027,2376.69,200.6149898538598
Miramichi,NB,Burnt Church,47.193236,-65.136361,58,"2004, 2005, 2006, 2007, 2008, 2009, 2010, 2011, 2012, 2013, 2014, 2015, 2016, 2017, 2018, 2019","ALW, ALOSA , EEL, SLA, SILV, TOM, KIL, BSS, HER, CHU, CUN, 4SS, GSH, GCR, MCR, MUM, 9SS, PIP, SMEL, RCR, SSH, SFL, SBA, 3SS, PER, WNFL, WFL","BRFU, COBR, ZOMA, GRAL, COFR, KELP, FUCU, RUMA",52707,3294.19,615.1140749198747
Souris,PE,Cahil Lane 10%,46.379258,-62.289264,3,2019,"ALW, EEL, SILV, KIL, BSS, 4SS, MUM, 9SS, RCR, SSH, 3SS",GRAL,857,857.00,74.62261820247458
Wheatley,PE,Cameron Lane 10%,46.38974,-63.270994,2,2019,"EEL, 4SS, GSH, MUM, SSH",GRAL,353,353.00,137.20145771820353
Cap-Pelé,NB,Camp Ta-Wa-Si,46.1827,-64.11454,32,"2009, 2010, 2011, 2012, 2013, 2014, 2015, 2016, 2017, 2018, 2019","ALW, SLA, SILV, BSS, CUN, 4SS, GSH, GRUB, LCR, MUM, 9SS, RCR, SSH, SCU, SFL, 3SS, WNFL, WFL","BRFU, COBR, CORE, ZOMA, GRAL, FUCU, RUMA",9049,822.64,481.9972211828895
Tatamagouche,NS,Cape John,45.79205,-63.103233,33,"2009, 2010, 2011, 2012, 2013, 2014, 2015, 2016, 2017, 2018, 2019","ALW, SILV, TOM, BSS, 4SS, GSH, GCR, MUM, 9SS, SMEL, RCR, SSH, SFL, SBA, 3SS, WFL","BRFU, CORE, ZOMA, GRAL, FUCU",3976,361.45,91.16993261856533
Cape Jourimain,NB,Cape Tourmentine,46.13285,-63.784783,52,"2005, 2006, 2007, 2008, 2009, 2010, 2011, 2012, 2013, 2014, 2015, 2016, 2017, 2018, 2019","ALW, EEL, SLA, SILV, TOM, BSS, CUN, FLOU, GSH, GCR, LCR, MUM, 9SS, PIP, RCR, SSH, SFL, SBA, 3SS, WNFL, WFL","BRFU, COBR, CORE, ZOMA, GRAL, COFR, KELP, FUCU",15989,1065.93,322.46681035680956
Bathurst Harbour,NB,Caron Point,47.65259,-65.62222,10,"2009, 2010, 2011","SLA, SILV, TOM, BSS, FLOU, 4SS, MUM, 9SS, SMEL, RCR, GUN, SSH, SFL, 3SS","BRFU, CORE, ZOMA, GRAL, KELP, FUCU, RUMA",9373,3124.33,587.1703924094114
Richibouctou,NB,Carson Landing,46.644702,-64.870099,46,"2006, 2007, 2008, 2009, 2010, 2011, 2012, 2013, 2014, 2015, 2016, 2017","ALW, SAL, SILV, TOM, KIL, BSS, BTR, CUN, FLOU, 4SS, GAST, GSH, GRUB, MCR, MUM, 9SS, SMEL, RCR, GUN, SSH, SCU, SFL, SBA, 3SS, WHHA, PER, WNFL, WFL","BRFU, COBR, CORE, ZOMA, GRAL, FUCU, RUMA",22216,1851.33,152.21533413540925
Cheticamp,NS,Causeway,46.60239,-61.0345,37,"2008, 2009, 2010, 2011, 2012, 2013, 2014, 2015, 2016, 2017, 2018","EEL, SLA, SAL, SILV, TOM, BSS, CUN, FLOU, 4SS, GAST, GSH, GCR, MCR, MUM, 9SS, PIP, RCR, GUN, SSH, SCU, SFL, 3SS, PER, WFL","BRFU, COBR, CORE, ZOMA, GRAL, FUCU",25077,2279.73,266.3599268761476
Souris,PE,Causeway East (50%),46.35652,-62.27541,40,"2008, 2009, 2010, 2011, 2012, 2013, 2014, 2015, 2016, 2017, 2018, 2019","ALW, ALOSA , EEL, MAK, SILV, BSS, HER, FLOU, 4SS, GAST, GSH, GCR, MCR, MUM, 9SS, SMEL, RCR, SSH, SFL, 3SS, WFL","BRFU, COBR, CORE, ZOMA, GRAL, KELP, FUCU, RUMA",24119,2009.92,332.5327687961001
Pinette,PE,Causeway North,46.06005,-62.90985,49,"2005, 2006, 2007, 2008, 2009, 2010, 2011, 2012, 2013, 2014, 2015, 2016, 2017, 2018, 2019","SILV, BSS, BTR, FLOU, 4SS, GSH, GCR, MCR, MUM, 9SS, RCR, SSH, SFL, 3SS, WFL","BRFU, CORE, ZOMA, GRAL, COFR, FUCU, RUMA",28710,1914.00,330.4697112530264
Pinette,PE,Causeway South,46.058533,-62.90725,49,"2005, 2006, 2007, 2008, 2009, 2010, 2011, 2012, 2013, 2014, 2015, 2016, 2017, 2018, 2019","SILV, BSS, BTR, FLOU, 4SS, GSH, GCR, MCR, MUM, 9SS, SMEL, RCR, SSH, SFL, 3SS, WFL","BRFU, ZOMA, GRAL, COFR, FUCU, RUMA",43202,2880.13,548.3593294615516
Tabusintac,NB,Cemetary,47.332778,-64.995865,49,"2004, 2006, 2007, 2008, 2009, 2010, 2011, 2012, 2013, 2014, 2015, 2016, 2017, 2018, 2019","ALW, EEL, SILV, TOM, BSS, FLOU, 4SS, GAST, GSH, GCR, MCR, MUM, 9SS, PIP, SMEL, RCR, SSH, SFL, SBA, 3SS, WFL","BRFU, CORE, ZOMA, GRAL, FUCU",27433,1828.87,173.51656917961066
Murray River,PE,Cemetery,46.008167,-62.514202,49,"2005, 2006, 2007, 2008, 2009, 2010, 2011, 2012, 2013, 2014, 2015, 2016, 2017, 2018, 2019","SILV, BSS, BTR, FLOU, 4SS, GAST, GSH, GCR, MUM, 9SS, PIP, RCR, SSH, SFL, 3SS, WFL","BRFU, COBR, ZOMA, GRAL, COFR, FUCU, RUMA",15214,1014.27,130.9002993753346
Pokemouche,NB,Centre Plein Air,47.67657,-64.84812,33,"2009, 2010, 2011, 2012, 2013, 2014, 2015, 2016, 2017, 2018, 2019","ALW, SILV, KIL, BSS, FLOU, 4SS, GSH, MUM, 9SS, PIP, SMEL, SSH, SFL, 3SS","BRFU, COBR, CORE, ZOMA, GRAL, KELP, FUCU, RUMA",38701,3518.27,409.3300113198903
St-Louis de Kent,NB,Ch. Ghislain South,46.747258,-64.963693,59,"2004, 2005, 2006, 2007, 2008, 2009, 2010, 2011, 2012, 2013, 2014, 2015, 2016, 2017, 2018, 2019","ALW, EEL, SILV, TOM, KIL, BSS, CUN, FLOU, 4SS, GAST, GSH, GCR, MCR, MUM, 9SS, PIP, SMEL, RCR, SSH, SFL, SBA, 3SS, TRO, UNK, PER, WFL","BRFU, ZOMA, GRAL, FUCU, RUMA",33906,2119.13,137.83036825646283
Richibouctou,NB,Chalet du Havre,46.689667,-64.858834,46,"2006, 2007, 2008, 2009, 2010, 2011, 2012, 2013, 2014, 2015, 2016, 2017","ALW, SAL, SILV, TOM, KIL, BSS, CUN, FLOU, 4SS, GAST, GSH, GCR, GRUB, MCR, MUM, 9SS, PIP, SMEL, RCR, SSH, SCU, SFL, SBA, 3SS, WHHA, PER, WNFL, WFL","BRFU, COBR, CORE, ZOMA, GRAL, FUCU, RUMA",41265,3438.75,252.43842765244312
Tracadie,NB,Chalets des 2 Rivieres,47.51692,-64.899713,52,"2005, 2006, 2007, 2008, 2009, 2010, 2011, 2012, 2013, 2014, 2015, 2016, 2017, 2018","ALW, EEL, MAK, SILV, TOM, KIL, BSS, BTR, CUN, FLOU, 4SS, GSH, MCR, MUM, 9SS, PIP, SMEL, RTR, RCR, SSH, SCU, SFL, SBA, 3SS, WNFL, WFL","BRFU, COBR, CORE, ZOMA, GRAL, FUCU, RUMA",26111,1865.07,180.1189940632315
Bathurst Harbour,NB,Charlie's,47.65668,-65.6468,10,"2009, 2010, 2011","ALW, SILV, KIL, BSS, 4SS, GSH, MUM, 9SS, SMEL, SSH, SFL, 3SS, WFL","ZOMA, GRAL, FUCU",4292,1430.67,101.6399714954311
Pokemouche,NB,Chemin Arseneau,47.66008,-64.80486,33,"2009, 2010, 2011, 2012, 2013, 2014, 2015, 2016, 2017, 2018, 2019","ALW, SILV, TOM, KIL, BSS, 4SS, GSH, MUM, 9SS, PIP, SMEL, RCR, SSH, SFL, 3SS, WFL","BRFU, COBR, CORE, ZOMA, GRAL, FUCU, RUMA",24927,2266.09,263.22312472551425
Cocagne,NB,Chemin Belle-Côte,46.33125,-64.58293,57,"2004, 2005, 2006, 2007, 2008, 2009, 2010, 2011, 2012, 2013, 2014, 2015, 2016, 2017, 2018, 2019","ALW, EEL, SLA, MAK, SILV, BSS, CHU, CUN, FLOU, 4SS, GAST, GSH, GCR, LCR, MCR, MUM, 9SS, SMEL, RCR, SSH, SCU, SFL, SBA, 3SS, WNFL, WFL","BRFU, COBR, CORE, ZOMA, GRAL, FUCU, RUMA",38359,2397.44,330.12051799273763
Lameque,NB,Chemin Duclos,47.785525,-64.684277,52,"2004, 2005, 2006, 2007, 2008, 2009, 2010, 2011, 2012, 2013, 2014, 2015, 2018, 2019","SLA, SILV, TOM, BSS, FLOU, 4SS, GSH, GRUB, MCR, MUM, 9SS, SMEL, RCR, SSH, SFL, 3SS, WFL","BRFU, CORE, ZOMA, GRAL, KELP, FUCU, RUMA",19995,1428.21,243.26627640069574
Shediac River,NB,Chez Leo,46.273139,-64.575275,43,"2007, 2008, 2009, 2010, 2011, 2012, 2013, 2014, 2015, 2016, 2017, 2018, 2019","ALW, SILV, KIL, BSS, CUN, FLOU, 4SS, GSH, GCR, GRUB, MCR, MUM, 9SS, SMEL, SSH, SCU, SFL, SBA, 3SS, WNFL, WFL","BRFU, CORE, ZOMA, GRAL, FUCU",16204,1246.46,137.30312666632705
Shippagan,NB,Chiasson Office,47.746584,-64.657552,51,"2004, 2005, 2006, 2007, 2008, 2009, 2010, 2011, 2012, 2013, 2014, 2015, 2016","ALW, ALOSA , SILV, TOM, KIL, BSS, CUN, FLOU, 4SS, GAST, GSH, GRUB, MCR, MUM, 9SS, PIP, SMEL, RCR, SSH, SFL, SBA, 3SS, WFL","BRFU, COBR, CORE, ZOMA, GRAL, KELP, FUCU, RUMA",40999,3153.77,375.2477719273564
Lameque,NB,Chrysler 67,47.80085,-64.664486,52,"2004, 2005, 2006, 2007, 2008, 2009, 2010, 2011, 2012, 2013, 2014, 2015, 2018, 2019","EEL, SLA, SILV, BSS, CUN, FLOU, 4SS, GAST, GSH, MCR, MUM, 9SS, PIP, SMEL, RCR, SSH, SFL, SBA, 3SS, WFL","BRFU, COBR, CORE, ZOMA, GRAL, FUCU, RUMA",20193,1442.36,171.12021652927118
Murray River,PE,Clows Point,46.048606,-62.52941,49,"2005, 2006, 2007, 2008, 2009, 2010, 2011, 2012, 2013, 2014, 2015, 2016, 2017, 2018, 2019","ALW, ALOSA , EEL, SILV, BSS, BTR, CUN, FLOU, 4SS, GSH, GCR, MCR, MUM, 9SS, PIP, SMEL, RCR, GUN, SSH, SFL, 3SS, UNK, WNFL, WFL","BRFU, CORE, ZOMA, GRAL, FUCU",16719,1114.60,147.75753732614248
Cocagne,NB,Cocagne Marina,46.332469,-64.624657,57,"2004, 2005, 2006, 2007, 2008, 2009, 2010, 2011, 2012, 2013, 2014, 2015, 2016, 2017, 2018, 2019","ALW, SILV, TOM, KIL, BSS, BTR, CUN, FLOU, 4SS, GAST, GSH, GCR, LCR, MCR, MUM, 9SS, SMEL, RCR, SSH, SCU, SFL, SBA, 3SS, WFL","BRFU, COBR, CORE, ZOMA, GRAL, FUCU, RUMA",67335,4208.44,332.4248236840332
Cap-Pelé,NB,Comeau Point,46.172,-64.14977,33,"2009, 2010, 2011, 2012, 2013, 2014, 2015, 2016, 2017, 2018, 2019","SILV, KIL, BSS, CUN, FLOU, 4SS, GAST, GSH, GCR, GRUB, LCR, MCR, MUM, 9SS, SMEL, RCR, SSH, SFL, SBA, 3SS, WNFL, WFL","BRFU, CORE, ZOMA, GRAL, FUCU, RUMA",14000,1272.73,324.5038522561401
Cheticamp,NS,Coop,46.6243,-61.017433,37,"2008, 2009, 2010, 2011, 2012, 2013, 2014, 2015, 2016, 2017, 2018","ALW, EEL, SILV, TOM, BSS, CUN, FLOU, 4SS, GSH, GCR, GRUB, MCR, MUM, 9SS, PIP, RCR, GUN, SSH, SCU, SFL, 3SS, PER, WFL","BRFU, COBR, CORE, ZOMA, GRAL, FUCU",6164,560.36,196.13311242111044
Enmore,PE,Coop Road (Dry Wharf),46.59992,-64.07742,14,"2014, 2015, 2016, 2017, 2018, 2019","ALOSA , SILV, KIL, BSS, FLOU, 4SS, GSH, GCR, MCR, MUM, 9SS, SMEL, SSH, SFL, 3SS, PER, WFL","COBR, ZOMA, GRAL",7332,1222.00,418.7654921492051
Winter River,PE,Court's Island road 50%,46.37772,-63.02224,3,2019,"SILV, BSS, 4SS, GSH, MUM, PIP, SSH, SFL, 3SS, WFL","ZOMA, GRAL",3745,3745.00,352.66698172638735
Tabusintac,NB,Covedell Rd.,47.330701,-64.972889,50,"2004, 2006, 2007, 2008, 2009, 2010, 2011, 2012, 2013, 2014, 2015, 2016, 2017, 2018, 2019","ALW, EEL, SILV, TOM, BSS, BRST, CUN, FLOU, 4SS, GAST, GSH, GCR, MCR, MUM, 9SS, PIP, SMEL, RCR, SSH, SFL, SBA, 3SS, WFL","BRFU, COBR, CORE, ZOMA, GRAL",34963,2330.87,147.94052958305738
Pugwash,NS,Crescent Beach,45.8547,-63.66575,55,"2004, 2005, 2006, 2007, 2008, 2009, 2010, 2011, 2012, 2013, 2014, 2015, 2016, 2017, 2018, 2019","ALW, EEL, SLA, SILV, TOM, BSS, CUN, 4SS, GAST, GSH, GCR, GRUB, MUM, 9SS, SMEL, RTR, GUN, SSH, SFL, 3SS, WNFL, WFL","BRFU, COBR, CORE, ZOMA, GRAL, FUCU",13978,873.63,195.38295932952883
Bathurst Harbour,NB,Daly Point,47.63957,-65.61709,9,"2009, 2010, 2011","SILV, BSS, 4SS, MUM, 9SS, SSH, SFL, 3SS","BRFU, ZOMA, GRAL, FUCU",3062,1020.67,115.37998889813792
Miramichi,NB,Dickson Beach,47.07417,-65.36536,1,2019,"SILV, BSS, MUM, SSH, 3SS",,264,264.00,95.13443120132688
Pugwash,NS,Doherty Creek,45.814,-63.659167,56,"2004, 2005, 2006, 2007, 2008, 2009, 2010, 2011, 2012, 2013, 2014, 2015, 2016, 2017, 2018, 2019","ALW, EEL, SILV, TOM, BSS, CUN, FLOU, 4SS, GAST, GSH, GCR, MCR, MUM, 9SS, SMEL, RCR, SSH, SFL, 3SS, WFL","BRFU, ZOMA, GRAL, FUCU, RUMA",16976,1061.00,253.88897932099343
Trout River,PE,Douglas Road,46.45854,-63.46931,57,"2004, 2005, 2006, 2007, 2008, 2009, 2010, 2011, 2012, 2013, 2014, 2015, 2016, 2017, 2018, 2019","EEL, SILV, BSS, BTR, CUN, FLOU, 4SS, GAST, GSH, GCR, LCR, MCR, MUM, 9SS, PIP, RTR, RCR, SSH, SCU, SFL, 3SS, WFL","BRFU, COBR, CORE, ZOMA, GRAL, FUCU, RUMA",41200,2575.00,265.8681725966989
Bathurst Harbour,NB,Downtown Causeway,47.61966,-65.66146,10,"2009, 2010, 2011","ALW, SILV, BSS, 4SS, GSH, MUM, 9SS, SMEL, SSH, SFL, 3SS, WFL","GRAL, FUCU",3274,1091.33,137.48566205329627
Antigonish,NS,Dunn's Beach,45.68314,-61.87121,60,"2004, 2005, 2006, 2007, 2008, 2009, 2010, 2011, 2012, 2013, 2014, 2015, 2016, 2017, 2018, 2019","ALW, EEL, SLA, SAL, SILV, TOM, KIL, BSS, HER, BTR, CUN, FLOU, 4SS, GAST, GSH, GCR, MCR, MUM, 9SS, PIP, SMEL, RTR, RCR, SSH, SFL, 3SS, PER, WNFL, WFL, YEFL","BRFU, COBR, CORE, ZOMA, GRAL, FUCU",35601,2225.06,246.31791353534393
Pictou,NS,East Side Causeway,45.669717,-62.7275,58,"2004, 2005, 2006, 2007, 2008, 2009, 2010, 2011, 2012, 2013, 2014, 2015, 2016, 2017, 2018, 2019","ALW, MAK, SAL, SILV, TOM, KIL, BSS, BTR, CUN, FLOU, 4SS, GSH, GCR, MUM, 9SS, PIP, RCR, SSH, SFL, 3SS, BAR, WNFL, WFL","BRFU, COBR, CORE, ZOMA, GRAL, FUCU, RUMA",40243,2515.19,359.74598348916385
Lameque,NB,Eco Parc,47.799472,-64.65711,52,"2004, 2005, 2006, 2007, 2008, 2009, 2010, 2011, 2012, 2013, 2014, 2015, 2018, 2019","ALW, SILV, BSS, FLOU, 4SS, GAST, GSH, MCR, MUM, 9SS, SMEL, SSH, SFL, 3SS, WFL","BRFU, COBR, CORE, ZOMA, GRAL, FUCU",19038,1359.86,433.20562084345426
Enmore,PE,Ed Yeo,46.56501,-64.07073,14,"2014, 2015, 2016, 2017, 2018, 2019","ALW, EEL, SILV, TOM, KIL, BSS, CUN, FLOU, 4SS, GSH, GCR, MCR, MUM, 9SS, PIP, SMEL, RCR, SSH, SFL, SBA, 3SS, WNFL, WFL","BRFU, ZOMA, GRAL, RUMA",3070,511.67,82.66878218327648
Antigonish,NS,Eden,45.659083,-61.909083,61,"2004, 2005, 2006, 2007, 2008, 2009, 2010, 2011, 2012, 2013, 2014, 2015, 2016, 2017, 2018, 2019","ALW, EEL, SLA, SILV, TOM, KIL, BSS, HER, BTR, CUN, FLOU, 4SS, GAST, GSH, GCR, GRUB, MCR, MUM, 9SS, PIP, SMEL, RTR, RCR, GUN, SSH, SCU, SFL, SBA, 3SS, WHHA, PER, WFL, YEFL","BRFU, CORE, ZOMA, GRAL, FUCU, RUMA",41055,2565.94,156.39191094412502
Eel Ground,NB,Eel Ground,46.9639,-65.62628,39,"2008, 2009, 2010, 2011, 2012, 2013, 2014, 2015, 2016, 2017, 2018, 2019","ALW, ALOSA , EEL, SAL, SILV, TOM, KIL, BSS, BRST, BTR, CHU, CYPR, 4SS, LACH, MCR, MUM, 9SS, PIP, SMEL, RCR, SSH, SFL, SBA, 3SS, UNK, PER, WHSU","ZOMA, GRAL",5300,441.67,61.050192109711276
Cape Jourimain,NB,End of Wharf Rd,46.16837,-63.936214,49,"2005, 2006, 2007, 2008, 2009, 2010, 2011, 2012, 2013, 2014, 2015, 2016, 2017, 2018, 2019","ALW, EEL, SILV, TOM, KIL, BSS, CUN, FLOU, 4SS, GSH, GCR, LCR, MCR, MUM, 9SS, PIP, SMEL, RCR, SSH, SFL, SBA, 3SS, WNFL, WFL","BRFU, COBR, CORE, ZOMA, GRAL, COFR, FUCU, RUMA",15057,1003.80,169.11346103697684
Enmore,PE,Enman Shore,46.58261,-64.06773,14,"2014, 2015, 2016, 2017, 2018, 2019","SILV, BSS, FLOU, 4SS, GAST, GSH, GCR, MCR, MUM, 9SS, SSH, SFL, 3SS, WFL","ZOMA, GRAL",14772,2462.00,1032.8360411839053
Néguac,NB,Esgenoopetitj,47.211567,-65.114617,15,"2013, 2014, 2015, 2016, 2017","ALW, ALOSA , EEL, SILV, TOM, BSS, CUN, FLOU, 4SS, GSH, MUM, 9SS, PIP, RCR, SSH, SFL, SBA, 3SS, WFL","BRFU, COBR, CORE, ZOMA, GRAL, FUCU, RUMA",7725,1545.00,140.0900143146981
Néguac,NB,Ferdinand Road,47.246197,-65.072603,16,"2013, 2014, 2015, 2016, 2017, 2018","ALW, SILV, BSS, FLOU, 4SS, GSH, MCR, MUM, 9SS, RCR, SSH, SFL, SBA, 3SS, WFL","BRFU, COBR, CORE, ZOMA, GRAL, KELP, RUMA",15854,2642.33,383.61537379757135
Souris,PE,Ferry 100%,46.35102,-62.2504,40,"2008, 2009, 2010, 2011, 2012, 2013, 2014, 2015, 2016, 2017, 2018, 2019","ALW, ALOSA , SLA, MAK, SILV, BSS, HER, CUN, FLOU, 4SS, GSH, GCR, MCR, MUM, 9SS, RCR, SSH, SFL, 3SS, WFL","BRFU, COBR, CORE, ZOMA, GRAL, FUCU",34969,2914.08,559.90359189457
Cheticamp,NS,Fiset Brook,46.598533,-61.022583,38,"2008, 2009, 2010, 2011, 2012, 2013, 2014, 2015, 2016, 2017, 2018, 2019","ALW, EEL, SILV, TOM, BSS, CUN, FLOU, 4SS, GAST, GSH, GCR, GRUB, MUM, 9SS, PIP, RCR, SSH, SCU, 3SS, UNK, PER, WFL","BRFU, COBR, ZOMA, GRAL, FUCU",35382,2948.50,241.87638746585753
Caraquet,NB,Fish Meal,47.807329,-64.857323,56,"2004, 2005, 2006, 2007, 2008, 2009, 2010, 2011, 2012, 2013, 2014, 2015, 2016, 2017, 2018, 2019","ALW, SLA, MAK, SILV, TOM, BSS, BRST, CUN, FLOU, 4SS, GAST, GSH, MCR, MUM, 9SS, PIP, RCR, GUN, SSH, SFL, 3SS, WNFL, WFL","BRFU, COBR, CORE, ZOMA, GRAL, FUCU",58651,3665.69,659.4969031070965
Scoudouc River,NB,Fish Plant,46.219115,-64.553316,58,"2004, 2005, 2006, 2007, 2008, 2009, 2010, 2011, 2012, 2013, 2014, 2015, 2016, 2017, 2018, 2019","ALW, SLA, SILV, BSS, HER, BTR, CUN, FLOU, 4SS, GAST, GSH, GCR, MCR, MUM, 9SS, SMEL, SSH, SCU, SFL, SBA, 3SS, WFL","BRFU, COBR, ZOMA, GRAL, FUCU, RUMA",198086,12380.38,2571.689129416091
Cocagne,NB,Gauvin Beach,46.34102,-64.573724,57,"2004, 2005, 2006, 2007, 2008, 2009, 2010, 2011, 2012, 2013, 2014, 2015, 2016, 2017, 2018, 2019","ALW, SILV, TOM, BSS, CUN, FLOU, 4SS, GSH, GCR, LCR, MCR, MUM, 9SS, SMEL, RCR, SSH, SCU, SFL, SBA, 3SS, WFL, SKAT","BRFU, COBR, CORE, ZOMA, GRAL, FUCU, RUMA",33975,2123.44,184.35215170598332
Scoudouc River,NB,Gazibo,46.21465,-64.552165,58,"2004, 2005, 2006, 2007, 2008, 2009, 2010, 2011, 2012, 2013, 2014, 2015, 2016, 2017, 2018, 2019","ALW, EEL, SILV, KIL, BSS, CUN, FLOU, 4SS, GAST, GSH, GCR, MCR, MUM, 9SS, SSH, SFL, SBA, 3SS, TRO, WFL","BRFU, COBR, CORE, ZOMA, GRAL, FUCU, RUMA",36333,2270.81,177.6629968129692
Mabou,NS,Gillis Cove,46.08585,-61.458805,59,"2004, 2005, 2006, 2007, 2008, 2009, 2010, 2011, 2012, 2013, 2014, 2015, 2016, 2017, 2018, 2019","ALW, EEL, SLA, SAL, SILV, TOM, BSS, BTR, CUN, FLOU, 4SS, GAST, GSH, GCR, GRUB, LCR, MCR, MUM, 9SS, PIP, RCR, SSH, SCU, SFL, SBA, 3SS, WHHA, PER, WFL","BRFU, COBR, CORE, ZOMA, GRAL, FUCU, RUMA",29132,1820.75,130.13892754186557
Summerside,PE,Glover Pt.,46.389143,-63.770298,42,"2007, 2008, 2009, 2010, 2011, 2012, 2013, 2014, 2015, 2016, 2017, 2018","ALOSA , SILV, BSS, CUN, FLOU, 4SS, GAST, GSH, GCR, MCR, MUM, 9SS, SMEL, SSH, SFL, 3SS, WFL","BRFU, CORE, ZOMA, GRAL, FUCU",6785,565.42,116.42744150672758
Richibouctou,NB,Goguen Road,46.674162,-64.84545,46,"2006, 2007, 2008, 2009, 2010, 2011, 2012, 2013, 2014, 2015, 2016, 2017","ALW, SILV, TOM, KIL, BSS, FLOU, 4SS, GAST, GSH, GCR, MCR, MUM, 9SS, RCR, SSH, SFL, SBA, 3SS, PER, WNFL, WFL","BRFU, COBR, CORE, ZOMA, GRAL, FUCU, RUMA",71491,5957.58,2197.846437409188
Brackley/Covehead,PE,Golfe Course,46.41305555555556,-63.1166666666667,23,"2011, 2012, 2013, 2014, 2015, 2016, 2017, 2018, 2019","SILV, KIL, BSS, FLOU, 4SS, GSH, GCR, MCR, MUM, 9SS, PIP, SSH, SFL, 3SS, WFL","COBR, CORE, ZOMA, GRAL, RUMA",10512,1168.00,207.01557432986263
Mabou,NS,Goose Point,46.06671,-61.427544,59,"2004, 2005, 2006, 2007, 2008, 2009, 2010, 2011, 2012, 2013, 2014, 2015, 2016, 2017, 2018, 2019","ALW, EEL, SILV, TOM, KIL, BSS, BTR, CUN, FLOU, 4SS, GAST, GSH, GCR, MUM, 9SS, PIP, SMEL, RCR, SSH, SCU, SFL, 3SS, PER, WNFL, WFL","BRFU, COBR, ZOMA, GRAL, FUCU, RUMA",32139,2008.69,116.82375383751535
Miramichi,NB,Gordon's wharf,47.079645,-65.393156,58,"2004, 2005, 2006, 2007, 2008, 2009, 2010, 2011, 2012, 2013, 2014, 2015, 2016, 2017, 2018, 2019","ALW, ALOSA , EEL, SAL, SILV, TOM, KIL, BSS, HER, BTR, BBUL, CYPR, FLOU, 4SS, GSH, MCR, MUM, 9SS, PIP, SMEL, RCR, SSH, SFL, SBA, 3SS, WHSU, WFL","BRFU, ZOMA, GRAL, FUCU",37459,2341.19,285.12428580614556
Wheatley,PE,Grand  Pere Point road 100%,46.411164,-63.245782,2,2019,"SILV, BSS, 4SS, GSH, GCR, MUM, SSH, 3SS",GRAL,8524,8524.00,1941.1725980848678
Wheatley,PE,Grand Pere Point road 100%,46.411164,-63.245782,1,2019,"4SS, GSH, GCR, MUM, SSH, 3SS",GRAL,3040,3040.00,1096.3352082683878
Wheatley,PE,Grand Pere Point road 50%,46.404868,-63.253044,3,2019,"EEL, SILV, BSS, 4SS, GSH, GCR, MUM, 9SS, SSH, SCU, 3SS, WFL",GRAL,2918,2918.00,258.5431533229559
Cheticamp,NS,Gretchen Beach,46.619467,-61.026367,38,"2008, 2009, 2010, 2011, 2012, 2013, 2014, 2015, 2016, 2017, 2018, 2019","ALW, EEL, SLA, SILV, TOM, BSS, CUN, FLOU, 4SS, GAST, GSH, GCR, GRUB, MCR, MUM, 9SS, PIP, RCR, GUN, SSH, SCU, SBA, 3SS, PER, WFL, YEFL","BRFU, COBR, CORE, ZOMA, GRAL, FUCU",3456,288.00,31.422338970142377
Desable River,PE,Guthrie's,46.19638888888889,-63.422,27,"2008, 2009, 2010, 2011, 2012, 2013, 2014","SILV, TOM, BSS, FLOU, 4SS, GAST, GSH, GCR, MUM, 9SS, SMEL, RCR, SSH, SFL, 3SS, WFL","ZOMA, GRAL, KELP, FUCU",15287,2183.86,440.8053366940181
Tatamagouche,NS,Hamelton Lane,45.760967,-63.188167,33,"2009, 2010, 2011, 2012, 2013, 2014, 2015, 2016, 2017, 2018, 2019","SILV, KIL, BSS, 4SS, GSH, GCR, MCR, MUM, 9SS, SSH, SFL, 3SS, PER, WFL","COBR, ZOMA, GRAL, FUCU",5002,454.73,143.19295029797897
Pinette,PE,Harbour,46.058417,-62.928533,49,"2005, 2006, 2007, 2008, 2009, 2010, 2011, 2012, 2013, 2014, 2015, 2016, 2017, 2018, 2019","SILV, BSS, CUN, 4SS, GSH, GCR, MCR, MUM, 9SS, RCR, SSH, SCU, SFL, 3SS, WFL","BRFU, COBR, CORE, ZOMA, GRAL, COFR, FUCU, RUMA",18471,1231.40,265.59558596359597
Cap-Pelé,NB,Harbour Shore Rd.,46.17319,-64.16438,33,"2009, 2010, 2011, 2012, 2013, 2014, 2015, 2016, 2017, 2018, 2019","ALW, SILV, KIL, BSS, CUN, FLOU, 4SS, GSH, GCR, MCR, MUM, 9SS, RCR, SSH, SFL, 3SS, WNFL, WFL","BRFU, ZOMA, GRAL, RUMA",33086,3007.82,685.7823781631952
Enmore,PE,Higgin's wharf,46.54865,-64.08741,14,"2014, 2015, 2016, 2017, 2018, 2019","SILV, BSS, FLOU, 4SS, GSH, GCR, MCR, MUM, 9SS, RCR, SSH, SFL, 3SS, WFL","COBR, ZOMA, GRAL",4786,797.67,176.19992117541432
Hillsborough,PE,Hillsborough Hospital,46.253637326,-63.098152896,33,"2009, 2010, 2011, 2012, 2013, 2014, 2015, 2016, 2017, 2018, 2019","ALOSA , SILV, BSS, FLOU, 4SS, GSH, GCR, MCR, MUM, 9SS, SSH, SFL, 3SS, WFL","BRFU, CORE, ZOMA, GRAL, FUCU, RUMA",22505,2045.91,551.443129937762
Hillsborough,PE,Horton Park,46.242433,-63.090807999,33,"2009, 2010, 2011, 2012, 2013, 2014, 2015, 2016, 2017, 2018, 2019","ALOSA , SILV, BSS, FLOU, 4SS, GSH, GCR, MCR, MUM, 9SS, SSH, SFL, 3SS","BRFU, COBR, ZOMA, GRAL, FUCU, RUMA",17136,1557.82,603.3629711873276
Dunk River,PE,Hurd's Point road 50%,46.349109,-63.762092,3,2019,"ALW, SILV, BSS, 4SS, GSH, MCR, MUM, 9SS, SSH, SFL, 3SS",GRAL,773,773.00,57.94060407003019
Néguac,NB,Ile-aux-foins,47.230688,-65.075657,15,"2013, 2014, 2015, 2016, 2017, 2018","ALW, ALOSA , EEL, SILV, TOM, KIL, BSS, FLOU, 4SS, GSH, MUM, 9SS, PIP, SMEL, RCR, SSH, SFL, SBA, 3SS, WFL","BRFU, COBR, CORE, ZOMA, GRAL, FUCU, RUMA",31083,5180.50,1032.119905550274
Shediac River,NB,Indian Point,46.273319,-64.56477,43,"2007, 2008, 2009, 2010, 2011, 2012, 2013, 2014, 2015, 2016, 2017, 2018, 2019","ALW, SILV, KIL, BSS, FLOU, 4SS, GSH, GCR, MCR, MUM, 9SS, SMEL, RCR, SSH, SFL, SBA, 3SS, WFL","BRFU, COBR, CORE, ZOMA, GRAL, FUCU",19926,1532.77,452.78989807765936
Bouctouche,NB,Info Center,46.471729,-64.714365,58,"2004, 2005, 2006, 2007, 2008, 2009, 2010, 2011, 2012, 2013, 2014, 2015, 2016, 2017, 2018, 2019","ALW, EEL, SILV, TOM, KIL, BSS, FLOU, 4SS, GAST, GSH, GCR, LCR, MCR, MUM, 9SS, SMEL, RCR, GUN, SSH, SFL, SBA, 3SS, UNK, WFL","BRFU, COBR, CORE, ZOMA, GRAL, COFR, FUCU",61356,3834.75,289.02193237397313
Pokemouche,NB,Inkerman Ferry,47.67764,-64.81683,33,"2009, 2010, 2011, 2012, 2013, 2014, 2015, 2016, 2017, 2018, 2019","ALW, SILV, KIL, BSS, FLOU, 4SS, GSH, MUM, 9SS, PIP, RCR, SSH, SFL, SBA, 3SS, WFL","BRFU, CORE, ZOMA, GRAL, FUCU, RUMA",18893,1717.55,232.05801563457473
Trout River,PE,Inn on the Pier,46.46921,-63.45003,57,"2004, 2005, 2006, 2007, 2008, 2009, 2010, 2011, 2012, 2013, 2014, 2015, 2016, 2017, 2018, 2019","EEL, SLA, SILV, TOM, BSS, BRST, BTR, CUN, FLOU, 4SS, GAST, GSH, GCR, GRUB, MUM, 9SS, PIP, SMEL, RCR, GUN, SSH, SCU, SFL, 3SS, UNK, WFL","BRFU, COBR, CORE, ZOMA, GRAL, FUCU, RUMA",55418,3463.63,519.5157027490093
Cape Jourimain,NB,Interpretive Center,46.160933,-63.8128,53,"2005, 2006, 2007, 2008, 2009, 2010, 2011, 2012, 2013, 2014, 2015, 2016, 2017, 2018, 2019","ALW, SLA, SILV, KIL, BSS, FLOU, 4SS, GAST, GSH, GCR, GRUB, LCR, MCR, MUM, 9SS, SMEL, RCR, GUN, SSH, SFL, SBA, 3SS, WNFL, WFL","BRFU, COBR, CORE, ZOMA, GRAL, COFR, KELP, FUCU, RUMA",19926,1328.40,289.15924440053016
Lameque,NB,Irving,47.788011,-64.63752,52,"2004, 2005, 2006, 2007, 2008, 2009, 2010, 2011, 2012, 2013, 2014, 2015, 2018, 2019","SILV, TOM, BSS, FLOU, 4SS, GSH, MCR, MUM, 9SS, PIP, SSH, SFL, 3SS, WFL","BRFU, COBR, ZOMA, GRAL, FUCU, RUMA",17735,1266.79,145.74020171690574
Richibouctou,NB,Irving,46.646119,-64.875349,46,"2006, 2007, 2008, 2009, 2010, 2011, 2012, 2013, 2014, 2015, 2016, 2017","ALW, EEL, SILV, TOM, KIL, BSS, CUN, CYPR, FLOU, 4SS, GAST, GSH, GCR, MCR, MUM, 9SS, RCR, SSH, SFL, SBA, 3SS, PER, WNFL, WFL","BRFU, COBR, CORE, ZOMA, GRAL, FUCU",20833,1736.08,133.39584184687257
Brudenell-Montague,PE,Island East,46.197824,-62.578086,50,"2005, 2006, 2007, 2008, 2009, 2010, 2011, 2012, 2013, 2014, 2015, 2016, 2017, 2018, 2019","ALW, SILV, BSS, FLOU, 4SS, GAST, GCR, MCR, MUM, 9SS, RCR, SSH, SFL, 3SS, WFL","BRFU, COBR, ZOMA, GRAL, FUCU",29642,1976.13,438.27370676218277
Tatamagouche,NS,Island Road,45.756033,-63.339,33,"2009, 2010, 2011, 2012, 2013, 2014, 2015, 2016, 2017, 2018, 2019","ALOSA , SILV, BSS, BTR, CUN, 4SS, GSH, GCR, MCR, MUM, 9SS, RCR, SSH, SFL, SBA, 3SS, WNFL, WFL","BRFU, ZOMA, GRAL, FUCU",27992,2544.73,766.1713581354081
Brudenell-Montague,PE,Island West,46.197877,-62.578434,50,"2005, 2006, 2007, 2008, 2009, 2010, 2011, 2012, 2013, 2014, 2015, 2016, 2017, 2018, 2019","ALW, ALOSA , SILV, TOM, BSS, HER, FLOU, 4SS, GAST, GSH, GCR, MUM, 9SS, SSH, SFL, 3SS, WFL","BRFU, COBR, ZOMA, GRAL, FUCU",20448,1363.20,199.97773482331053
Richibouctou,NB,Jardine Park,46.665292,-64.861867,46,"2006, 2007, 2008, 2009, 2010, 2011, 2012, 2013, 2014, 2015, 2016, 2017","ALW, SILV, TOM, KIL, BSS, CUN, FLOU, 4SS, GAST, GSH, GCR, GRUB, MCR, MUM, 9SS, RCR, SSH, SFL, SBA, 3SS, PER, WFL","BRFU, COBR, CORE, ZOMA, GRAL, COFR, FUCU, RUMA",14028,1169.00,81.40912269223269
Souris,PE,Joe Carter 100%,46.35015,-62.2796,40,"2008, 2009, 2010, 2011, 2012, 2013, 2014, 2015, 2016, 2017, 2018, 2019","ALW, ALOSA , SILV, KIL, BSS, HER, FLOU, 4SS, GAST, GCR, MCR, MUM, 9SS, SMEL, RCR, SSH, SFL, 3SS, PER, WFL","BRFU, COBR, CORE, ZOMA, GRAL, KELP, FUCU",20675,1722.92,304.6967157585672
Malpèque Bay,PE,Keirs Shore,46.525798,-63.697348999,33,"2009, 2010, 2011, 2012, 2013, 2014, 2015, 2016, 2017, 2018, 2019","SILV, KIL, BSS, FLOU, 4SS, GSH, GCR, MCR, MUM, 9SS, SSH, SFL, 3SS, WFL","COBR, CORE, ZOMA, GRAL, COFR, FUCU, RUMA",17129,1557.18,342.42134108612146
Wheatley,PE,Kingfisher Lane 10%,46.387872,-63.268845,2,2019,"EEL, SILV, MUM",GRAL,6290,6290.00,2962.3061211757904
Cap-Pelé,NB,Kouchibouguac River,46.21546,-64.36419,33,"2009, 2010, 2011, 2012, 2013, 2014, 2015, 2016, 2017, 2018, 2019","SLA, SILV, BSS, BTR, CUN, FLOU, 4SS, GAST, GSH, GCR, MCR, MUM, 9SS, PIP, RCR, GUN, SSH, SFL, SBA, 3SS, UNK, WNFL, WFL","BRFU, ZOMA, GRAL, FUCU",26005,2364.09,224.361898437469
Shippagan,NB,L.L. Gauthier,47.739834,-64.698903,53,"2004, 2005, 2006, 2007, 2008, 2009, 2010, 2011, 2012, 2013, 2014, 2015, 2016","SLA, SILV, BSS, FLOU, 4SS, GSH, MUM, 9SS, SMEL, RCR, SSH, SFL, SBA, 3SS, WFL","BRFU, COBR, ZOMA, GRAL, KELP, FUCU, RUMA",32927,2532.85,668.6526551835913
River Phillip,NS,Landry Beach,45.84928,-63.74701,14,"2007, 2008, 2009","ALW, SILV, BSS, HER, 4SS, GSH, GCR, MCR, MUM, 9SS, SSH, SFL, 3SS","BRFU, ZOMA, GRAL, FUCU, RUMA",14274,4758.00,451.79690273355374
Pinette,PE,Larson Drive,46.061033,-62.916083,48,"2005, 2006, 2007, 2008, 2009, 2010, 2011, 2012, 2013, 2014, 2015, 2016, 2017, 2018, 2019","SILV, BSS, FLOU, 4SS, GSH, GCR, MCR, MUM, 9SS, RCR, SSH, SFL, 3SS, WFL","BRFU, ZOMA, GRAL, COFR, FUCU, RUMA",21012,1400.80,299.81537509701457
Tabusintac,NB,Left side of wharf,47.341712,-64.965766,50,"2004, 2006, 2007, 2008, 2009, 2010, 2011, 2012, 2013, 2014, 2015, 2016, 2017, 2018, 2019","ALW, EEL, SILV, TOM, KIL, BSS, FLOU, 4SS, GSH, MCR, MUM, 9SS, PIP, SMEL, RCR, SSH, SFL, SBA, 3SS, WFL","BRFU, COBR, CORE, ZOMA, GRAL, KELP, FUCU, RUMA",26817,1787.80,127.09626616113492
Cocagne,NB,Lighthouse,46.335807,-64.615219,57,"2004, 2005, 2006, 2007, 2008, 2009, 2010, 2011, 2012, 2013, 2014, 2015, 2016, 2017, 2018, 2019","ALW, SLA, SILV, TOM, BSS, CUN, FLOU, 4SS, GAST, GSH, GCR, GRUB, LCR, MCR, MUM, 9SS, SMEL, RCR, GUN, SSH, SCU, SFL, SBA, 3SS, WNFL, WFL","BRFU, COBR, CORE, ZOMA, GRAL, COFR, FUCU, RUMA",37469,2341.81,227.94989874935638
Summerside,PE,Linkletter Provincial Park,46.398003,-63.857097,42,"2007, 2008, 2009, 2010, 2011, 2012, 2013, 2014, 2015, 2016, 2017, 2018","ALOSA , SILV, BSS, CUN, FLOU, 4SS, GSH, GCR, MCR, MUM, 9SS, SMEL, RCR, GUN, SSH, SCU, SFL, 3SS, WNFL, WFL","BRFU, COBR, CORE, ZOMA, GRAL, COFR, FUCU, RUMA",7544,628.67,62.9651357899754
Scoudouc River,NB,Lobster,46.218937,-64.554866,58,"2004, 2005, 2006, 2007, 2008, 2009, 2010, 2011, 2012, 2013, 2014, 2015, 2016, 2017, 2018, 2019","ALW, SILV, TOM, KIL, BSS, CUN, FLOU, 4SS, GSH, GCR, MCR, MUM, 9SS, SMEL, RTR, GUN, SSH, SCU, SFL, SBA, 3SS, WNFL, WFL","BRFU, CORE, ZOMA, GRAL, FUCU, RUMA",36356,2272.25,258.88134722749356
River Phillip,NS,Lobster Shed,45.853004,-63.744756,22,"2005, 2006, 2007, 2008, 2009","ALW, SILV, BSS, HER, BTR, 4SS, GSH, GCR, MCR, MUM, 9SS, GUN, SSH, SCU, SFL, 3SS, WFL","BRFU, CORE, ZOMA, GRAL, FUCU, RUMA",13110,2622.00,215.9452082100129
Mill River,PE,Long Creek,46.763,-64.146667,58,"2004, 2005, 2006, 2007, 2008, 2009, 2010, 2011, 2012, 2013, 2014, 2015, 2016, 2017, 2018, 2019","EEL, SILV, BSS, BTR, FLOU, 4SS, GSH, GRUB, MCR, MUM, 9SS, PIP, SSH, SFL, 3SS, WFL","ZOMA, GRAL, RUMA",55607,3475.44,574.4898814541821
Pictou,NS,Lyon's Brook,45.67583,-62.74132,58,"2004, 2005, 2006, 2007, 2008, 2009, 2010, 2011, 2012, 2013, 2014, 2015, 2016, 2017, 2018, 2019","ALW, EEL, SILV, TOM, KIL, BSS, HER, BTR, CUN, FLOU, 4SS, GAST, GSH, GCR, MCR, MUM, 9SS, PIP, RCR, SSH, SFL, 3SS, WNFL, WFL","BRFU, COBR, CORE, ZOMA, GRAL, COFR, FUCU, RUMA",42302,2643.88,227.88299570365652
Murray River,PE,Machons Point,46.018891,-62.511072,49,"2005, 2006, 2007, 2008, 2009, 2010, 2011, 2012, 2013, 2014, 2015, 2016, 2017, 2018, 2019","ALOSA , SILV, BSS, FLOU, 4SS, GAST, GSH, GCR, MCR, MUM, 9SS, PIP, RCR, SSH, SCU, SFL, 3SS, WNFL, WFL","BRFU, COBR, CORE, ZOMA, GRAL, COFR, KELP, FUCU",13651,910.07,168.1000646174458
Mabou,NS,MacLean's Point,46.07815,-61.455567,58,"2004, 2005, 2006, 2007, 2008, 2009, 2010, 2011, 2012, 2013, 2014, 2015, 2016, 2017, 2018, 2019","ALW, EEL, SLA, MAK, SAL, SILV, TOM, KIL, BSS, BTR, CUN, 4SS, GAST, GSH, GCR, GRUB, MUM, 9SS, PIP, SMEL, RTR, RCR, SSH, SCU, SFL, SBA, 3SS, TRO, WHHA, PER, WFL","BRFU, COBR, CORE, ZOMA, GRAL, FUCU",25656,1603.50,122.28168466429977
Brackley/Covehead,PE,MacMillan's Point,46.420833333333334,-63.1658333333333,23,"2011, 2012, 2013, 2014, 2015, 2016, 2017, 2018, 2019","EEL, SILV, BSS, CUN, FLOU, 4SS, GAST, GSH, GCR, GRUB, MCR, MUM, 9SS, PIP, RCR, SSH, SFL, 3SS, UNK, WFL","BRFU, COBR, CORE, ZOMA, GRAL, RUMA",24970,2774.44,330.9617419016178
Mabou,NS,MacPhee's Point,46.082867,-61.441933,59,"2004, 2005, 2006, 2007, 2008, 2009, 2010, 2011, 2012, 2013, 2014, 2015, 2016, 2017, 2018, 2019","ALW, EEL, SAL, SILV, TOM, KIL, BSS, HER, BTR, CUN, 4SS, GAST, GSH, GCR, GRUB, MUM, 9SS, PIP, SMEL, RCR, SSH, SFL, SBA, 3SS, TRO, PER, WFL, YEFL","BRFU, COBR, CORE, ZOMA, GRAL, COFR, FUCU, RUMA",11368,710.50,36.674815909308414
Desable River,PE,MacQuarries,46.19352777777778,-63.4271388888889,27,"2008, 2009, 2010, 2011, 2012, 2013, 2014","SILV, BSS, FLOU, GSH, GCR, MUM, 9SS, SMEL, RCR, SSH, SFL, 3SS, WFL","COBR, CORE, ZOMA, GRAL, KELP, FUCU",23480,3354.29,894.0436974577858
Desable River,PE,Maggies,46.18830555555556,-63.4218888888889,26,"2008, 2009, 2010, 2011, 2012, 2013, 2014","SILV, BSS, BTR, FLOU, 4SS, GCR, MUM, 9SS, SSH, SFL, 3SS","COBR, CORE, ZOMA, GRAL, KELP, FUCU",33675,4810.71,1369.8344186731517
Tatamagouche,NS,Malagash Centre,45.77285,-63.305167,33,"2009, 2010, 2011, 2012, 2013, 2014, 2015, 2016, 2017, 2018, 2019","SILV, TOM, BSS, 4SS, GSH, GCR, MCR, MUM, 9SS, SSH, SFL, SBA, 3SS, WFL","BRFU, COBR, ZOMA, GRAL, FUCU",14702,1336.55,285.79714394517123
Néguac,NB,Malpec Road,47.277433,-65.017733,16,"2013, 2014, 2015, 2016, 2017, 2018","EEL, SILV, TOM, BSS, FLOU, 4SS, GAST, GSH, MCR, MUM, 9SS, SSH, SFL, SBA, 3SS, WFL","CORE, ZOMA, GRAL, FUCU, RUMA",3803,633.83,83.0475150377228
Brackley/Covehead,PE,Marcie's,46.422222222222224,-63.1433333333333,23,"2011, 2012, 2013, 2014, 2015, 2016, 2017, 2018, 2019","EEL, SILV, TOM, BSS, CUN, FLOU, 4SS, GAST, GSH, GCR, GRUB, MCR, MUM, 9SS, PIP, RCR, SSH, SCU, SFL, SBA, 3SS, UNK, WFL","BRFU, COBR, CORE, ZOMA, GRAL, FUCU, RUMA",21748,2416.44,244.09281638664163
Bathurst Harbour,NB,Marina,47.65579,-65.62616,10,"2009, 2010, 2011","ALW, SILV, BSS, 4SS, GSH, GRUB, MUM, 9SS, SMEL, RCR, SSH, SFL, 3SS, WFL","COBR, CORE, ZOMA, GRAL, FUCU",7564,2521.33,379.87710236762865
Bouctouche,NB,Marina,46.475972,-64.710486,58,"2004, 2005, 2006, 2007, 2008, 2009, 2010, 2011, 2012, 2013, 2014, 2015, 2016, 2017, 2018, 2019","ALW, SILV, TOM, KIL, BSS, BTR, CUN, FLOU, 4SS, GAST, GSH, GCR, LCR, MCR, MUM, 9SS, SMEL, RCR, GUN, SSH, SCU, SFL, SBA, 3SS, WNFL, WFL","BRFU, COBR, CORE, ZOMA, GRAL, FUCU",52323,3270.19,606.7199214959456
Caraquet,NB,Marina,47.802127,-64.874018,56,"2004, 2005, 2006, 2007, 2008, 2009, 2010, 2011, 2012, 2013, 2014, 2015, 2016, 2017, 2018, 2019","SLA, SILV, TOM, BSS, BRST, CUN, FLOU, 4SS, GSH, GRUB, MUM, 9SS, SMEL, RCR, SSH, SFL, 3SS, WFL","BRFU, COBR, CORE, ZOMA, GRAL, FUCU",58320,3645.00,1141.382577113548
Pictou,NS,Marina,45.6829,-62.691,58,"2004, 2005, 2006, 2007, 2008, 2009, 2010, 2011, 2012, 2013, 2014, 2015, 2016, 2017, 2018, 2019","ALW, EEL, SLA, SAL, SILV, KIL, BSS, CUN, FLOU, 4SS, GAST, GSH, GCR, GRUB, LCR, MCR, MUM, 9SS, PIP, RCR, GUN, SSH, SCU, SFL, 3SS, WNFL, WFL, YEFL","BRFU, COBR, CORE, ZOMA, GRAL, KELP, FUCU, RUMA",26259,1641.19,230.18519866436588
Cocagne,NB,Marina Beach Cape,46.35647,-64.573946,57,"2004, 2005, 2006, 2007, 2008, 2009, 2010, 2011, 2012, 2013, 2014, 2015, 2016, 2017, 2018, 2019","ALW, EEL, SLA, SILV, TOM, BSS, CUN, FLOU, 4SS, GAST, GSH, GCR, GRUB, LCR, MCR, MUM, 9SS, PIP, SMEL, RCR, GUN, SSH, SCU, SFL, SBA, 3SS, WHHA, WNFL, WFL","BRFU, COBR, CORE, ZOMA, GRAL, COFR, FUCU, RUMA",38389,2399.31,254.13000333769753
Brackley/Covehead,PE,Mary's,46.416111111111114,-63.1655555555556,22,"2011, 2012, 2013, 2014, 2015, 2016, 2017, 2018, 2019","SILV, BSS, BRST, FLOU, 4SS, GAST, GSH, GCR, MUM, 9SS, PIP, RCR, SSH, SFL, 3SS, WFL","COBR, CORE, ZOMA, GRAL",21298,2366.44,1102.7768013429768
Enmore,PE,McGees Field,46.62024,-64.08209,14,"2014, 2015, 2016, 2017, 2018, 2019","ALW, SILV, KIL, BSS, FLOU, 4SS, GSH, GCR, MUM, 9SS, RCR, SSH, SFL, 3SS, UNK, WFL","COBR, ZOMA, GRAL, FUCU",8104,1350.67,423.4905904936807
Richibouctou,NB,McGuire Beach,46.692181,-64.824549,46,"2006, 2007, 2008, 2009, 2010, 2011, 2012, 2013, 2014, 2015, 2016, 2017","ALW, SAL, SILV, TOM, KIL, BSS, CUN, FLOU, 4SS, GAST, GSH, GCR, GRUB, MCR, MUM, 9SS, PIP, SMEL, RCR, SSH, SFL, SBA, 3SS, WHHA, PER, WNFL, WFL","BRFU, COBR, CORE, ZOMA, GRAL, FUCU",15822,1318.50,152.56612763590184
Néguac,NB,McLeod Road,47.263633,-65.04365,16,"2013, 2014, 2015, 2016, 2017, 2018","ALW, EEL, SILV, TOM, BSS, FLOU, 4SS, GAST, GSH, MCR, MUM, 9SS, RCR, SSH, SFL, SBA, 3SS, WFL","BRFU, COBR, ZOMA, GRAL, KELP, FUCU, RUMA",3695,615.83,78.77165253205233
Mill River,PE,Meggison Creek,46.773778,-64.126831,56,"2004, 2005, 2006, 2007, 2008, 2009, 2010, 2011, 2012, 2013, 2014, 2015, 2016, 2017, 2018, 2019","SILV, BSS, FLOU, 4SS, GSH, MCR, MUM, 9SS, PIP, SSH, SFL, 3SS, WFL","ZOMA, GRAL, RUMA",96672,6042.00,1230.956877264273
Miramichi,NB,Middle Island,47.057687,-65.426951,58,"2004, 2005, 2006, 2007, 2008, 2009, 2010, 2011, 2012, 2013, 2014, 2015, 2016, 2017, 2018, 2019","ALW, ALOSA , EEL, SAL, SILV, TOM, KIL, BSS, HER, BRST, BTR, CUN, FLOU, 4SS, GSH, MCR, MUM, 9SS, PIP, SMEL, RCR, SSH, SFL, SBA, 3SS, TRO, UNK, WFL","BRFU, COBR, CORE, ZOMA, GRAL, FUCU",25093,1568.31,177.36740481647809
Malpèque Bay,PE,Montgomery Road,46.559339432,-63.711283524,33,"2009, 2010, 2011, 2012, 2013, 2014, 2015, 2016, 2017, 2018, 2019","SILV, KIL, BSS, FLOU, 4SS, GSH, GCR, MCR, MUM, 9SS, RCR, SSH, SCU, SFL, 3SS, WFL","BRFU, COBR, CORE, ZOMA, GRAL, KELP, FUCU, RUMA",15577,1416.09,189.5580381366673
Pugwash,NS,Mundle's,45.8738,-63.653333,42,"2007, 2008, 2009, 2010, 2011, 2012, 2013, 2014, 2015, 2016, 2017, 2018, 2019","ALW, SILV, TOM, KIL, BSS, CUN, 4SS, GSH, GCR, MUM, 9SS, SMEL, SSH, SFL, 3SS, PER, WNFL, WFL","BRFU, COBR, CORE, ZOMA, GRAL, KELP, FUCU, RUMA",6275,482.69,145.53803516250125
Miramichi,NB,Murdock beach,47.074723,-65.33653,58,"2004, 2005, 2006, 2007, 2008, 2009, 2010, 2011, 2012, 2013, 2014, 2015, 2016, 2017, 2018, 2019","ALW, ALOSA , EEL, SILV, TOM, KIL, BSS, HER, BRST, CHU, 4SS, GSH, MCR, MUM, 9SS, PIP, SMEL, RCR, SSH, SFL, SBA, 3SS, UNK, WNFL, WFL","BRFU, CORE, ZOMA, GRAL, FUCU",17194,1074.63,128.15630081107258
Mabou,NS,Murphy's Point,46.07235,-61.413583,59,"2004, 2005, 2006, 2007, 2008, 2009, 2010, 2011, 2012, 2013, 2014, 2015, 2016, 2017, 2018, 2019","EEL, SILV, TOM, KIL, BSS, HER, BTR, CUN, 4SS, GAST, GSH, GCR, MCR, MUM, 9SS, PIP, SMEL, RCR, SSH, SFL, SBA, 3SS, WHHA, PER, WNFL, WFL","BRFU, COBR, CORE, ZOMA, GRAL, COFR, FUCU, RUMA",22655,1415.94,87.25743372099025
Cape Jourimain,NB,Murray Beach,46.18005,-63.985433,52,"2005, 2006, 2007, 2008, 2009, 2010, 2011, 2012, 2013, 2014, 2015, 2016, 2017, 2018","ALW, SLA, MAK, SILV, BSS, HER, CUN, FLOU, GSH, GCR, GRUB, LCR, MCR, MUM, 9SS, SMEL, RCR, GUN, SSH, SCU, SFL, SBA, 3SS, WNFL, WFL","BRFU, COBR, CORE, ZOMA, GRAL, COFR, KELP, FUCU, RUMA",7356,525.43,72.16636187991084
Antigonish,NS,Naveen Lane,45.635338,-61.904481,51,"2004, 2005, 2006, 2007, 2008, 2009, 2010, 2011, 2012, 2013, 2017, 2018, 2019","ALW, EEL, SLA, SAL, SILV, KIL, BSS, HER, BTR, CUN, 4SS, GAST, GSH, GCR, MUM, 9SS, PIP, SMEL, SSH, SFL, SBA, 3SS, TRO, WNFL, WFL","BRFU, COBR, CORE, ZOMA, GRAL, FUCU, RUMA",58975,4536.54,347.07053942013346
Eel Ground,NB,Nelson Road,46.96865,-65.55928,38,"2008, 2009, 2010, 2011, 2012, 2013, 2014, 2015, 2016, 2017, 2018","ALW, EEL, SAL, SILV, TOM, KIL, BSS, BRST, CHU, CYPR, 4SS, MCR, MUM, 9SS, RTR, RCR, SSH, SFL, SBA, 3SS, UNK, WHSU, WFL","BRFU, ZOMA, GRAL, KELP, RUMA",6314,574.00,75.0754419674446
Souris,PE,New Zealand rd. (10%),46.374493,-62.292103,2,2019,"SILV, KIL, BSS, 4SS, GCR, MUM, 9SS, SSH, 3SS",GRAL,2637,2637.00,383.3419970922751
Tabusintac,NB,Next to bridge,47.331656,-65.009059,50,"2004, 2006, 2007, 2008, 2009, 2010, 2011, 2012, 2013, 2014, 2015, 2016, 2017, 2018, 2019","ALW, SILV, TOM, KIL, BSS, BTR, FLOU, 4SS, GAST, GSH, MCR, MUM, 9SS, PIP, SMEL, RCR, SSH, SFL, SBA, 3SS, UNK, WNFL, WFL","BRFU, CORE, ZOMA, GRAL, RUMA",38773,2584.87,259.5689907984347
Murray River,PE,Nicolle Cove,46.023203,-62.537107,49,"2005, 2006, 2007, 2008, 2009, 2010, 2011, 2012, 2013, 2014, 2015, 2016, 2017, 2018, 2019","ALOSA , SILV, BSS, FLOU, 4SS, GAST, GSH, GCR, MUM, 9SS, PIP, RCR, SSH, SFL, 3SS, WFL","BRFU, COBR, ZOMA, GRAL, FUCU",17296,1153.07,261.49878467085796
Miramichi,NB,Oak Point,47.116738,-65.266799,58,"2004, 2005, 2006, 2007, 2008, 2009, 2010, 2011, 2012, 2013, 2014, 2015, 2016, 2017, 2018, 2019","ALW, ALOSA , EEL, SILV, TOM, KIL, BSS, HER, BRST, CUN, 4SS, GSH, MCR, MUM, 9SS, PIP, SMEL, RCR, SSH, SFL, SBA, 3SS, WHSU, WNFL, WFL","BRFU, CORE, ZOMA, GRAL, FUCU",28657,1791.06,271.2665565789897
Malpèque Bay,PE,Old Ferry Road,46.512100991,-63.888895787,33,"2009, 2010, 2011, 2012, 2013, 2014, 2015, 2016, 2017, 2018, 2019","ALOSA , SILV, BSS, FLOU, 4SS, GAST, GSH, GCR, MCR, MUM, 9SS, PIP, RCR, SSH, SFL, 3SS, WFL","COBR, ZOMA, GRAL, FUCU, RUMA",17457,1587.00,197.95920606623437
River Phillip,NS,Old MacDonald Beach,45.86107,-63.72884,14,"2007, 2008, 2009","ALW, SILV, BSS, CUN, 4SS, GSH, GCR, MCR, MUM, 9SS, SMEL, SSH, SFL, SBA, 3SS, WFL","BRFU, CORE, ZOMA, GRAL, FUCU",5930,1976.67,178.19378671342244
Dunk River,PE,Olscamp Lane 100%,46.370926,-63.801073,2,2019,"SILV, GSH, MCR, MUM, 9SS, SSH, SFL, 3SS, WFL",FUCU,860,860.00,159.88106690773472
Cheticamp,NS,Opposite Church,46.627867,-61.021067,37,"2008, 2009, 2010, 2011, 2012, 2013, 2014, 2015, 2016, 2017, 2018","ALW, EEL, SILV, TOM, BSS, CUN, FLOU, 4SS, GAST, GSH, GCR, GRUB, MCR, MUM, 9SS, PIP, RCR, GUN, SSH, SCU, SFL, 3SS, WFL","BRFU, COBR, ZOMA, GRAL, FUCU, RUMA",34706,3155.09,389.35800623197423
Basin Head,PE,Opposite House,46.385205,-62.116711,66,"2004, 2005, 2006, 2007, 2008, 2009, 2010, 2011, 2012, 2013, 2014, 2015, 2016, 2017, 2018, 2019","ALW, EEL, SILV, TOM, BSS, CUN, FLOU, 4SS, GAST, GSH, GCR, GRUB, MCR, MUM, 9SS, PIP, RCR, SSH, SCU, SFL, 3SS, WHHA, WFL","BRFU, COBR, CORE, ZOMA, GRAL, KELP, FUCU, RUMA",78623,4913.94,513.5131496640768
Brackley/Covehead,PE,Osprey Point,46.411944444444444,-63.1836111111111,23,"2011, 2012, 2013, 2014, 2015, 2016, 2017, 2018, 2019","SILV, KIL, BSS, FLOU, 4SS, GAST, GSH, GCR, MUM, 9SS, RCR, SSH, SFL, 3SS, WFL","BRFU, COBR, CORE, ZOMA, GRAL, RUMA",55802,6200.22,1890.3052052115634
Summerside,PE,Oyster Launch,46.383956,-63.758716,42,"2007, 2008, 2009, 2010, 2011, 2012, 2013, 2014, 2015, 2016, 2017, 2018","ALW, ALOSA , SILV, BSS, HER, CUN, FLOU, 4SS, GAST, GSH, GCR, MCR, MUM, 9SS, SMEL, RCR, GUN, SSH, SFL, 3SS, WFL","COBR, CORE, ZOMA, GRAL, FUCU, RUMA",19146,1595.50,250.8227961766494
Pugwash,NS,Pagweak Camp,45.853717,-63.675933,43,"2007, 2008, 2009, 2010, 2011, 2012, 2013, 2014, 2015, 2016, 2017, 2018, 2019","ALW, SILV, TOM, BSS, CUN, 4SS, GAST, GSH, GCR, MCR, MUM, 9SS, GUN, SSH, SFL, 3SS, PER, WNFL, WFL, YEFL","BRFU, CORE, ZOMA, GRAL, FUCU",16780,1290.77,381.0396796423506
Tracadie,NB,Parc Val Comeau,47.473463,-64.873712,52,"2005, 2006, 2007, 2008, 2009, 2010, 2011, 2012, 2013, 2014, 2015, 2016, 2017, 2018","ALW, EEL, MAK, SILV, TOM, KIL, BSS, CUN, 4SS, GSH, GRUB, MUM, 9SS, PIP, SMEL, RCR, SSH, SCU, SFL, SBA, 3SS, WFL","BRFU, COBR, CORE, ZOMA, GRAL, FUCU, RUMA",23089,1649.21,260.0544571789793
Pinette,PE,Park Boat Launch,46.054833,-62.9105,48,"2005, 2006, 2007, 2008, 2009, 2010, 2011, 2012, 2013, 2014, 2015, 2016, 2017, 2018, 2019","ALOSA , SILV, BSS, BTR, CUN, FLOU, 4SS, GSH, GCR, MCR, MUM, 9SS, RCR, SSH, SFL, 3SS, WNFL, WFL","COBR, ZOMA, GRAL, FUCU, RUMA",37850,2523.33,765.2279777102729
St-Louis de Kent,NB,Park North,46.75123,-64.951922,59,"2004, 2005, 2006, 2007, 2008, 2009, 2010, 2011, 2012, 2013, 2014, 2015, 2016, 2017, 2018, 2019","ALW, EEL, SAL, SILV, TOM, KIL, BSS, CUN, FLOU, 4SS, GAST, GSH, GCR, MCR, MUM, 9SS, PIP, SMEL, RCR, SSH, SFL, SBA, 3SS, PER, WNFL, WFL","BRFU, CORE, ZOMA, GRAL, FUCU, RUMA",31367,1960.44,117.09251566537957
St-Louis de Kent,NB,Park South,46.750968,-64.949386,59,"2004, 2005, 2006, 2007, 2008, 2009, 2010, 2011, 2012, 2013, 2014, 2015, 2016, 2017, 2018, 2019","ALW, EEL, SILV, TOM, KIL, BSS, BTR, CUN, FLOU, 4SS, GAST, GSH, GCR, MCR, MUM, 9SS, PIP, SMEL, RCR, SSH, SFL, SBA, 3SS, TRO, PER, WNFL, WFL","BRFU, CORE, ZOMA, GRAL, RUMA",38176,2386.00,223.31670184692186
Brudenell-Montague,PE,Parker's Point,46.183691,-62.543005,49,"2005, 2006, 2007, 2008, 2009, 2010, 2011, 2012, 2013, 2014, 2015, 2016, 2017, 2018, 2019","SILV, BSS, FLOU, 4SS, GSH, GCR, MUM, 9SS, RCR, SSH, SFL, 3SS, WFL","BRFU, COBR, CORE, ZOMA, GRAL, FUCU",22062,1470.80,315.02511182870626
Souris,PE,Paul Deveau,46.37034,-62.27871,37,"2008, 2009, 2010, 2011, 2012, 2013, 2014, 2015, 2016, 2017, 2018","ALW, ALOSA , SLA, SILV, BSS, HER, FLOU, 4SS, GAST, GSH, GCR, MUM, 9SS, RCR, SSH, SCU, SFL, 3SS, WFL","COBR, ZOMA, GRAL, FUCU",21860,1987.27,232.91014305860512
Souris,PE,Paul Gallant 50%,46.35741,-62.27969,39,"2008, 2009, 2010, 2011, 2012, 2013, 2014, 2015, 2016, 2017, 2018, 2019","ALW, ALOSA , MAK, SILV, BSS, HER, FLOU, 4SS, GAST, GSH, GCR, MCR, MUM, 9SS, RCR, SSH, SCU, SFL, 3SS, WFL","BRFU, COBR, CORE, ZOMA, GRAL, KELP, FUCU",36914,3076.17,606.3158115568823
Caraquet,NB,Pecherie St-Paul,47.808815,-64.849468,56,"2004, 2005, 2006, 2007, 2008, 2009, 2010, 2011, 2012, 2013, 2014, 2015, 2016, 2017, 2018, 2019","ALW, EEL, SLA, SILV, TOM, BSS, CUN, 4SS, GSH, GRUB, MUM, 9SS, RCR, GUN, SSH, SCU, SFL, 3SS, WFL","BRFU, CORE, ZOMA, GRAL, FUCU",21175,1323.44,217.84718541418653
Winter River,PE,Pleasant Grove road 10%,46.37803,-63.057578,2,2019,"SILV, KIL, BSS, 4SS, GSH, MUM, SSH, SFL, 3SS","ZOMA, GRAL, RUMA",541,541.00,68.25803808573471
Cheticamp,NS,Pointe a Cochon,46.615083,-61.0237,38,"2008, 2009, 2010, 2011, 2012, 2013, 2014, 2015, 2016, 2017, 2018, 2019","ALW, EEL, SILV, TOM, BSS, CUN, FLOU, 4SS, GAST, GSH, GCR, GRUB, MCR, MUM, 9SS, PIP, RCR, GUN, SSH, SCU, SFL, 3SS, PER, WFL","BRFU, COBR, CORE, ZOMA, GRAL, FUCU, RUMA",24810,2067.50,197.96386611455034
St-Louis de Kent,NB,Pointe a Donatien,46.746883,-64.970356,58,"2004, 2005, 2006, 2007, 2008, 2009, 2010, 2011, 2012, 2013, 2014, 2015, 2016, 2017, 2018, 2019","ALW, EEL, SILV, TOM, KIL, BSS, BTR, CUN, FLOU, 4SS, GAST, GSH, GCR, MCR, MUM, 9SS, PIP, SMEL, RCR, SSH, SFL, SBA, 3SS, TRO, PER, WHSU, WFL","BRFU, ZOMA, GRAL, RUMA",27577,1723.56,99.07119601627326
Pokemouche,NB,Pointe a Godin,47.68707,-64.8487,33,"2009, 2010, 2011, 2012, 2013, 2014, 2015, 2016, 2017, 2018, 2019","ALW, EEL, SILV, TOM, KIL, BSS, BRST, FLOU, 4SS, GSH, MUM, 9SS, PIP, RCR, SSH, SFL, SBA, 3SS, WHSU, WFL","BRFU, COBR, ZOMA, GRAL, KELP, FUCU, RUMA",24682,2243.82,281.5410208916432
St-Louis de Kent,NB,Pointe a Maxime,46.766254,-64.911184,57,"2004, 2005, 2006, 2007, 2008, 2009, 2010, 2011, 2012, 2013, 2014, 2015, 2016, 2017, 2019","ALW, EEL, SILV, TOM, KIL, BSS, CUN, FLOU, 4SS, GAST, GSH, GCR, MCR, MUM, 9SS, PIP, SMEL, RCR, SSH, SFL, SBA, 3SS, WHHA, WNFL, WFL","BRFU, COBR, CORE, ZOMA, GRAL, KELP, FUCU, RUMA",39419,2627.93,193.93128053541
Miramichi,NB,Pointe aux Carr,47.077419,-65.207023,58,"2004, 2005, 2006, 2007, 2008, 2009, 2010, 2011, 2012, 2013, 2014, 2015, 2016, 2017, 2018, 2019","ALW, ALOSA , SILV, TOM, BSS, HER, BRST, BTR, CUN, 4SS, GSH, MCR, MUM, 9SS, SMEL, RCR, SSH, SFL, SBA, 3SS, WNFL, WFL","BRFU, COBR, CORE, ZOMA, GRAL, FUCU, RUMA",19369,1210.56,140.36524425094987
Shippagan,NB,Pointe Brulee,47.754598,-64.724922,53,"2004, 2005, 2006, 2007, 2008, 2009, 2010, 2011, 2012, 2013, 2014, 2015, 2016","ALW, SLA, SILV, TOM, BSS, FLOU, 4SS, GAST, GSH, MUM, 9SS, RCR, SSH, SFL, SBA, 3SS, WFL","BRFU, COBR, CORE, ZOMA, GRAL, COFR, KELP, FUCU, RUMA",58699,4515.31,626.3771979594345
Tracadie,NB,Pointe des Ferguson,47.471838,-64.897916,50,"2005, 2006, 2007, 2008, 2009, 2010, 2011, 2012, 2013, 2014, 2015, 2016, 2017, 2018","ALW, SILV, TOM, KIL, BSS, BRST, CUN, FLOU, 4SS, GSH, MCR, MUM, 9SS, PIP, SMEL, RCR, SSH, SCU, SFL, SBA, 3SS, WNFL, WFL","BRFU, CORE, ZOMA, GRAL, FUCU",11726,837.57,99.90336203720513
Pokemouche,NB,Pointe des Mazeroles,47.67109,-64.8083,32,"2009, 2010, 2011, 2012, 2013, 2014, 2015, 2016, 2017, 2018, 2019","ALW, SILV, KIL, BSS, 4SS, GSH, MUM, 9SS, PIP, SMEL, RCR, SSH, SFL, 3SS, WFL","BRFU, COBR, CORE, ZOMA, GRAL, FUCU, RUMA",19574,1779.45,248.334869492921
Enmore,PE,Portage Shore,46.578,-64.05475,14,"2014, 2015, 2016, 2017, 2018, 2019","ALOSA , SILV, BSS, FLOU, 4SS, GSH, GCR, MCR, MUM, 9SS, SSH, SFL, 3SS, WFL","COBR, ZOMA, GRAL",13095,2182.50,756.8521332648758
Pictou,NS,Power Plant,45.62596,-62.64932,57,"2004, 2005, 2006, 2007, 2008, 2009, 2010, 2011, 2012, 2013, 2014, 2015, 2016, 2017, 2018, 2019","ALW, SAL, SILV, KIL, BSS, HER, FLOU, 4SS, GSH, GCR, MCR, MUM, 9SS, PIP, RCR, SSH, SFL, SBA, 3SS, WFL","BRFU, CORE, ZOMA, GRAL, FUCU, RUMA",65515,4094.69,1044.3508683835362
Mabou,NS,Priest Point,46.073633,-61.405183,59,"2004, 2005, 2006, 2007, 2008, 2009, 2010, 2011, 2012, 2013, 2014, 2015, 2016, 2017, 2018, 2019","ALW, EEL, SAL, SILV, TOM, KIL, BSS, BTR, CUN, 4SS, GAST, GSH, GCR, MUM, 9SS, PIP, SMEL, RCR, SSH, SFL, SBA, 3SS, TRO, PER, WFL","BRFU, COBR, CORE, ZOMA, GRAL, KELP, FUCU",10589,661.81,62.979760377918474
Shippagan,NB,Pt. Sauvage,47.732,-64.684004,50,"2004, 2005, 2006, 2007, 2008, 2009, 2010, 2011, 2012, 2013, 2014, 2015, 2016","ALW, SLA, SILV, KIL, BSS, FLOU, 4SS, GSH, MCR, MUM, 9SS, SMEL, RCR, SSH, SCU, SFL, SBA, 3SS, WFL","BRFU, COBR, ZOMA, GRAL, COFR, KELP, FUCU, RUMA",29805,2292.69,353.15734816008575
Bouctouche,NB,Pub by the bridge,46.471865,-64.719819,58,"2004, 2005, 2006, 2007, 2008, 2009, 2010, 2011, 2012, 2013, 2014, 2015, 2016, 2017, 2018, 2019","ALW, SILV, TOM, KIL, BSS, CUN, FLOU, 4SS, GAST, GSH, GCR, LCR, MCR, MUM, 9SS, SMEL, RCR, GUN, SSH, SCU, SFL, SBA, 3SS, WNFL, WFL","BRFU, COBR, CORE, ZOMA, GRAL, FUCU",47275,2954.69,207.57120947919515
Tracadie,NB,Quai Val Comeau,47.464352,-64.886087,52,"2005, 2006, 2007, 2008, 2009, 2010, 2011, 2012, 2013, 2014, 2015, 2016, 2017, 2018","ALW, SILV, KIL, BSS, 4SS, GSH, GRUB, MUM, 9SS, RCR, SSH, SFL, 3SS","BRFU, COBR, CORE, ZOMA, GRAL, KELP, FUCU, RUMA",14879,1062.79,167.84950501364796
Hillsborough,PE,Queen Elizabeth Park,46.2482,-63.1535,33,"2009, 2010, 2011, 2012, 2013, 2014, 2015, 2016, 2017, 2018, 2019","ALOSA , MAK, SILV, BSS, FLOU, 4SS, GAST, GSH, GCR, MCR, MUM, 9SS, SSH, SFL, 3SS, WFL","COBR, CORE, ZOMA, GRAL, FUCU",26807,2437.00,606.9255605053249
Winter River,PE,Queen's Point road 100%,46.390168,-63.004063,3,2019,"SILV, BSS, 4SS, GSH, MUM, 9SS, SSH, SFL, 3SS, WFL","ZOMA, GRAL",3207,3207.00,353.37330476533685
Malpèque Bay,PE,Ramsay Farm,46.5862,-63.852168,33,"2009, 2010, 2011, 2012, 2013, 2014, 2015, 2016, 2017, 2018, 2019","ALW, ALOSA , EEL, SILV, BSS, FLOU, 4SS, GSH, MCR, MUM, 9SS, PIP, SMEL, RCR, SSH, SFL, 3SS, WFL","BRFU, COBR, ZOMA, GRAL, RUMA",12964,1178.55,136.39866953544563
Desable River,PE,Redcliff,46.189055555555555,-63.4369444444444,27,"2008, 2009, 2010, 2011, 2012, 2013, 2014","ALOSA , SILV, BSS, FLOU, 4SS, GAST, GSH, GCR, MUM, 9SS, SMEL, RCR, SSH, SFL, 3SS, WNFL, WFL","BRFU, CORE, ZOMA, GRAL, KELP, FUCU",6166,880.86,237.9444025508827
Mill River,PE,Resort,46.749806,-64.151997,58,"2004, 2005, 2006, 2007, 2008, 2009, 2010, 2011, 2012, 2013, 2014, 2015, 2016, 2017, 2018, 2019","ALOSA , SILV, KIL, BSS, BTR, CUN, FLOU, 4SS, GAST, GSH, MUM, 9SS, PIP, SSH, SFL, 3SS, TRO, WFL","ZOMA, GRAL, RUMA",70005,4375.31,718.8890253542341
Brudenell-Montague,PE,Richmond Street,46.181156,-62.539139,49,"2005, 2006, 2007, 2008, 2009, 2010, 2011, 2012, 2013, 2014, 2015, 2016, 2017, 2018, 2019","SILV, BSS, GCR, MCR, MUM, SMEL, RCR, SSH, SFL, 3SS, WFL","BRFU, ZOMA, GRAL, FUCU",23131,1542.07,297.5206209599307
Tabusintac,NB,Right side of wharf,47.340217,-64.972078,50,"2004, 2006, 2007, 2008, 2009, 2010, 2011, 2012, 2013, 2014, 2015, 2016, 2017, 2018, 2019","ALW, SILV, TOM, BSS, BTR, CUN, FLOU, 4SS, GAST, GSH, MCR, MUM, 9SS, PIP, SMEL, RCR, SSH, SFL, SBA, 3SS, UNK, WFL","BRFU, CORE, ZOMA, GRAL, FUCU, RUMA",58106,3873.73,690.3801007100516
Bathurst Harbour,NB,Roadside,47.64439,-65.6052,10,"2009, 2010, 2011","ALW, SILV, BSS, 4SS, GSH, MUM, 9SS, SSH, SFL, 3SS, WFL","ZOMA, GRAL, FUCU",3854,1284.67,144.79786220258055
Hillsborough,PE,Rocky Point,46.20736,-63.14716,33,"2009, 2010, 2011, 2012, 2013, 2014, 2015, 2016, 2017, 2018, 2019","ALOSA , SILV, BSS, FLOU, 4SS, GAST, GSH, GCR, GRUB, MCR, MUM, 9SS, SMEL, RCR, SSH, SFL, 3SS, WFL","COBR, CORE, ZOMA, GRAL, KELP, FUCU, RUMA",12156,1105.09,345.2384415768311
Lameque,NB,Roger Noel,47.782426,-64.641109,52,"2004, 2005, 2006, 2007, 2008, 2009, 2010, 2011, 2012, 2013, 2014, 2015, 2018, 2019","ALW, SILV, BSS, FLOU, 4SS, GAST, GSH, MCR, MUM, 9SS, SSH, SFL, SBA, 3SS, UNK, WFL","BRFU, COBR, ZOMA, GRAL, FUCU",20508,1464.86,227.32313168907675
Tatamagouche,NS,Rollie's,45.75675,-63.084417,32,"2009, 2010, 2011, 2012, 2013, 2014, 2015, 2016, 2017, 2018, 2019","SILV, TOM, BSS, 4SS, GSH, GCR, MUM, 9SS, SMEL, RCR, SSH, SFL, 3SS, WFL","BRFU, ZOMA, GRAL, FUCU",8028,729.82,314.8699043520461
Bouctouche,NB,Route 11,46.462419,-64.726601,58,"2004, 2005, 2006, 2007, 2008, 2009, 2010, 2011, 2012, 2013, 2014, 2015, 2016, 2017, 2018, 2019","ALW, EEL, SILV, TOM, BSS, CUN, FLOU, 4SS, GAST, GSH, GCR, MCR, MUM, 9SS, PIP, SMEL, RCR, GUN, SSH, SCU, SFL, SBA, 3SS, WNFL, WFL","BRFU, COBR, CORE, ZOMA, GRAL, FUCU, RUMA",70961,4435.06,272.01901305137324
Caraquet,NB,Rue Blanchard,47.817719,-64.99786,56,"2004, 2005, 2006, 2007, 2008, 2009, 2010, 2011, 2012, 2013, 2014, 2015, 2016, 2017, 2018, 2019","ALW, EEL, SLA, SILV, TOM, BSS, CUN, FLOU, 4SS, GSH, MCR, MUM, 9SS, SMEL, RCR, SSH, SFL, SBA, 3SS, UNK, WFL","COBR, CORE, ZOMA, GRAL, KELP, FUCU",64280,4017.50,874.596897845905
Shippagan,NB,Rue Degrace,47.748023,-64.71095,53,"2004, 2005, 2006, 2007, 2008, 2009, 2010, 2011, 2012, 2013, 2014, 2015, 2016","ALW, ALOSA , SILV, TOM, BSS, CUN, FLOU, 4SS, GSH, MCR, MUM, 9SS, PIP, SMEL, RCR, SSH, SCU, SFL, 3SS, WFL","BRFU, COBR, CORE, ZOMA, GRAL, COFR, KELP, FUCU, RUMA",28904,2223.38,292.9973681465062
Scoudouc River,NB,Rue Dock,46.220777,-64.552474,57,"2004, 2005, 2006, 2007, 2008, 2009, 2010, 2011, 2012, 2013, 2014, 2015, 2016, 2017, 2018, 2019","ALW, SILV, TOM, KIL, BSS, CUN, FLOU, 4SS, GSH, GCR, MCR, MUM, 9SS, SMEL, SSH, SFL, SBA, 3SS, WHHA, WFL","BRFU, COBR, CORE, ZOMA, GRAL, FUCU, RUMA",37386,2336.63,234.68408022196465
Lameque,NB,Rue du Pecheur,47.789535,-64.646046,50,"2004, 2005, 2006, 2007, 2008, 2009, 2010, 2011, 2012, 2013, 2014, 2015","SILV, BSS, 4SS, MUM, 9SS, SMEL, RCR, SSH, SFL, 3SS, WFL","BRFU, COBR, CORE, ZOMA, GRAL, FUCU",33062,2755.17,488.8883463765427
Caraquet,NB,Rue Dugas,47.777114,-65.029957,56,"2004, 2005, 2006, 2007, 2008, 2009, 2010, 2011, 2012, 2013, 2014, 2015, 2016, 2017, 2018, 2019","ALW, EEL, SLA, SILV, TOM, BSS, CUN, FLOU, 4SS, GSH, MCR, MUM, 9SS, SMEL, RCR, SSH, SFL, SBA, 3SS, WNFL, WFL","BRFU, COBR, ZOMA, GRAL, FUCU, RUMA",47051,2940.69,636.0560771598299
Caraquet,NB,Rue Foley,47.794929,-64.942717,56,"2004, 2005, 2006, 2007, 2008, 2009, 2010, 2011, 2012, 2013, 2014, 2015, 2016, 2017, 2018, 2019","SLA, SAL, SILV, TOM, BSS, CUN, FLOU, 4SS, GSH, GRUB, MCR, MUM, 9SS, SMEL, RCR, SSH, SCU, SFL, SBA, 3SS, WFL","BRFU, COBR, ZOMA, GRAL, KELP, FUCU, RUMA",47767,2985.44,518.8047962495677
Tracadie,NB,Rue McLaughlin,47.489795,-64.885233,51,"2005, 2006, 2007, 2008, 2009, 2010, 2011, 2012, 2013, 2014, 2015, 2016, 2017, 2018","ALW, SILV, TOM, KIL, BSS, FLOU, 4SS, GSH, GRUB, MUM, 9SS, RCR, SSH, SFL, 3SS, WFL","BRFU, COBR, CORE, ZOMA, GRAL, KELP, FUCU, RUMA",26204,1871.71,208.09409370566013
River Phillip,NS,Salt Marsh City,45.853883,-63.740833,22,"2005, 2006, 2007, 2008, 2009","SILV, BSS, 4SS, GSH, GCR, MCR, MUM, 9SS, SSH, SFL, 3SS, WFL","ZOMA, GRAL, FUCU, RUMA",27773,5554.60,1077.4309994409116
Shippagan,NB,Savoy Landing,47.753414,-64.692647,53,"2004, 2005, 2006, 2007, 2008, 2009, 2010, 2011, 2012, 2013, 2014, 2015, 2016","ALW, EEL, SILV, TOM, BSS, FLOU, 4SS, GSH, MCR, MUM, 9SS, SMEL, RCR, SSH, SFL, SBA, 3SS, WFL","BRFU, COBR, CORE, ZOMA, GRAL, COFR, FUCU",20215,1555.00,207.69754618939194
Antigonish,NS,Seabright,45.67237,-61.90695,61,"2004, 2005, 2006, 2007, 2008, 2009, 2010, 2011, 2012, 2013, 2014, 2015, 2016, 2017, 2018, 2019","ALW, EEL, SLA, SILV, TOM, KIL, BSS, HER, BTR, CUN, FLOU, 4SS, GAST, GSH, GCR, MUM, 9SS, PIP, SMEL, RTR, RCR, SSH, SFL, 3SS, TRO, WHHA, WNFL, WFL, YEFL","BRFU, COBR, CORE, ZOMA, GRAL, FUCU",102310,6394.38,1409.7491129716384
Shediac River,NB,Seagull,46.270801,-64.574252,43,"2007, 2008, 2009, 2010, 2011, 2012, 2013, 2014, 2015, 2016, 2017, 2018, 2019","ALW, SILV, KIL, BSS, CUN, FLOU, 4SS, GSH, GCR, MCR, MUM, 9SS, SMEL, SSH, SFL, SBA, 3SS, WFL","BRFU, COBR, CORE, ZOMA, GRAL, COFR, FUCU, RUMA",25136,1933.54,195.50699390224455
Pugwash,NS,Seagull Pier,45.845167000000004,-63.66395,55,"2004, 2005, 2006, 2007, 2008, 2009, 2010, 2011, 2012, 2013, 2014, 2015, 2016, 2017, 2018, 2019","ALW, SLA, SILV, KIL, BSS, 4SS, GAST, GSH, GCR, LCR, MCR, MUM, 9SS, SMEL, RCR, SSH, SFL, 3SS, WFL, YEFL","CORE, ZOMA, GRAL, FUCU, RUMA",28526,1782.88,197.01694931455535
Pokemouche,NB,Sentier NB,47.67381,-64.8209,33,"2009, 2010, 2011, 2012, 2013, 2014, 2015, 2016, 2017, 2018, 2019","SILV, KIL, BSS, BRST, CUN, 4SS, GSH, MUM, 9SS, SMEL, RCR, SSH, SFL, 3SS, WNFL, WFL","BRFU, COBR, CORE, ZOMA, GRAL, RUMA",15638,1421.64,145.82072946892185
Basin Head,PE,Shambles,46.387051,-62.114297,65,"2004, 2005, 2006, 2007, 2008, 2009, 2010, 2011, 2012, 2013, 2014, 2015, 2016, 2017, 2018, 2019","ALW, MAK, SILV, TOM, KIL, BSS, CUN, FLOU, 4SS, GAST, GSH, GCR, GRUB, MUM, 9SS, PIP, SMEL, RCR, SSH, SCU, SFL, 3SS, WFL","BRFU, ZOMA, GRAL, KELP, FUCU, RUMA",86173,5385.81,547.9665250345579
Murray River,PE,Sharams Point,46.020309,-62.525012,49,"2005, 2006, 2007, 2008, 2009, 2010, 2011, 2012, 2013, 2014, 2015, 2016, 2017, 2018, 2019","ALOSA , SILV, TOM, BSS, FLOU, 4SS, GSH, GCR, MUM, 9SS, PIP, RCR, SSH, SFL, 3SS, WHHA, WFL","COBR, CORE, ZOMA, GRAL, COFR, FUCU, RUMA",24245,1616.33,818.535537384626
Desable River,PE,Shirley's View,46.188,-63.4228888888889,27,"2008, 2009, 2010, 2011, 2012, 2013, 2014","SILV, BSS, FLOU, GCR, MUM, 9SS, SSH, SFL, 3SS","CORE, ZOMA, GRAL, KELP, FUCU",6601,943.00,178.41860801582683
Basin Head,PE,Slipway,46.383134,-62.11238,66,"2004, 2005, 2006, 2007, 2008, 2009, 2010, 2011, 2012, 2013, 2014, 2015, 2016, 2017, 2018, 2019","ALW, SLA, SILV, TOM, BSS, CUN, FLOU, 4SS, GSH, GCR, GRUB, MUM, 9SS, PIP, RCR, SSH, SCU, SFL, 3SS, WHHA, WFL","BRFU, CORE, ZOMA, GRAL, FUCU",94045,5877.81,730.6642391848836
Basin Head,PE,Small Creek,46.387556,-62.106785,65,"2004, 2005, 2006, 2007, 2008, 2009, 2010, 2011, 2012, 2013, 2014, 2015, 2016, 2017, 2018, 2019","ALW, EEL, SLA, SILV, BSS, CUN, FLOU, 4SS, GAST, GSH, GCR, GRUB, MUM, 9SS, PIP, SMEL, RCR, SSH, SCU, SFL, 3SS, WHHA, WFL","COBR, CORE, ZOMA, GRAL, FUCU",39461,2466.31,239.73628610825563
Pinette,PE,South Branch Wharf,46.053333,-62.9111,49,"2005, 2006, 2007, 2008, 2009, 2010, 2011, 2012, 2013, 2014, 2015, 2016, 2017, 2018, 2019","ALOSA , SILV, KIL, BSS, FLOU, 4SS, GSH, GCR, MUM, 9SS, RCR, SSH, SFL, 3SS, WNFL, WFL","BRFU, ZOMA, GRAL, COFR, FUCU, RUMA",42431,2828.73,825.3659197318523
Eel Ground,NB,South Esk,46.95805,-65.62209,38,"2008, 2009, 2010, 2011, 2012, 2013, 2014, 2015, 2016, 2017, 2018, 2019","ALW, ALOSA , EEL, SAL, SILV, TOM, KIL, BSS, BRST, BTR, CHU, CYPR, 4SS, LACH, MCR, MUM, 9SS, SMEL, RCR, SSH, SFL, SBA, 3SS, UNK, WHSU","ZOMA, GRAL",2756,229.67,38.27346630581534
Cape Jourimain,NB,Spencer's Point,46.15749,-63.90953,49,"2005, 2006, 2007, 2008, 2009, 2010, 2011, 2012, 2013, 2014, 2015, 2016, 2017, 2018, 2019","SLA, SILV, KIL, BSS, FLOU, 4SS, GAST, GSH, GCR, LCR, MCR, MUM, 9SS, SMEL, RCR, SSH, SFL, 3SS, WNFL, WFL","BRFU, COBR, CORE, ZOMA, GRAL, COFR, KELP, FUCU",29043,1936.20,506.44206488386124
Summerside,PE,Stavert Point Road,46.357944,-63.731488,42,"2007, 2008, 2009, 2010, 2011, 2012, 2013, 2014, 2015, 2016, 2017, 2018","ALW, ALOSA , SILV, TOM, BSS, BTR, FLOU, 4SS, GSH, GCR, MCR, MUM, 9SS, SMEL, RTR, RCR, SSH, SFL, 3SS, WFL","COBR, CORE, ZOMA, GRAL, FUCU, RUMA",21981,1831.75,218.59048885236507
Dunk River,PE,Staverts Shore 10%,46.357944,-63.731488,2,2019,"SILV, 4SS, GSH, MUM, 9SS, SSH, SFL, 3SS, WFL",GRAL,433,433.00,44.76810911519494
Eel Ground,NB,Strawberry Marsh,46.98624,-65.57426,39,"2008, 2009, 2010, 2011, 2012, 2013, 2014, 2015, 2016, 2017, 2018, 2019","ALW, ALOSA , EEL, SAL, SILV, TOM, KIL, BSS, BRST, CYPR, FLOU, 4SS, GSH, MCR, MUM, 9SS, PIP, SMEL, SSH, SFL, SBA, 3SS, UNK, WHSU","BRFU, ZOMA, GRAL, KELP",8628,719.00,244.93405607358662
Néguac,NB,Sullivan Road,47.254983,-65.063167,16,"2013, 2014, 2015, 2016, 2017, 2018","ALW, SILV, BSS, FLOU, 4SS, GSH, MCR, MUM, PIP, RCR, SSH, SFL, SBA, 3SS","COBR, CORE, ZOMA, GRAL, KELP, FUCU",3863,643.83,138.46324321718825
Wheatley,PE,Sunset Drive 100%,46.405922,-63.223712,2,2019,"BSS, 4SS, MUM, SSH",GRAL,2691,2691.00,785.2351558609688
Winter River,PE,Sunset Lane 100%,46.380017,-63.00635,3,2019,"SILV, KIL, BSS, 4SS, GSH, MUM, SSH, SFL, 3SS, WFL","ZOMA, GRAL",4159,4159.00,554.973420925619
Cap-Pelé,NB,Tedish River,46.22523,-64.29596,33,"2009, 2010, 2011, 2012, 2013, 2014, 2015, 2016, 2017, 2018, 2019","SILV, BSS, BTR, CUN, FLOU, 4SS, GAST, GSH, GCR, LCR, MCR, MUM, 9SS, SMEL, RCR, SSH, SFL, SBA, 3SS, WNFL, WFL","BRFU, ZOMA, GRAL",29458,2678.00,497.98112644137314
Antigonish,NS,Terra Tory Drive,45.65924,-61.913261,60,"2004, 2005, 2006, 2007, 2008, 2009, 2010, 2011, 2012, 2013, 2014, 2015, 2016, 2017, 2018, 2019","ALW, EEL, SLA, SILV, TOM, BSS, HER, BTR, CUN, FLOU, 4SS, GAST, GSH, GCR, GRUB, MCR, MUM, 9SS, PIP, SMEL, RCR, SSH, SCU, SFL, 3SS, WHHA, WFL, YEFL","BRFU, COBR, CORE, ZOMA, GRAL, KELP, FUCU, RUMA",39879,2492.44,249.27557387035552
Trout River,PE,Thymehill,46.44482,-63.47322,57,"2004, 2005, 2006, 2007, 2008, 2009, 2010, 2011, 2012, 2013, 2014, 2015, 2016, 2017, 2018, 2019","ALW, EEL, SILV, TOM, KIL, BSS, CUN, FLOU, 4SS, GAST, GSH, GCR, MUM, 9SS, PIP, SSH, SCU, SFL, 3SS, TRO, WFL","BRFU, COBR, CORE, ZOMA, GRAL, RUMA",95303,5956.44,543.7543555620858
Souris,PE,Tim Campbell,46.36766,-62.28626,37,"2008, 2009, 2010, 2011, 2012, 2013, 2014, 2015, 2016, 2017, 2018","ALW, ALOSA , SLA, MAK, SILV, BSS, HER, BTR, CUN, FLOU, 4SS, GAST, GSH, GCR, MCR, MUM, 9SS, PIP, SMEL, RCR, SSH, SFL, 3SS, WFL","BRFU, COBR, CORE, ZOMA, GRAL, FUCU",50849,4622.64,1513.9092450887556
Tatamagouche,NS,Tim Horton,45.735417,-63.318383,33,"2009, 2010, 2011, 2012, 2013, 2014, 2015, 2016, 2017, 2018, 2019","ALW, SILV, BSS, CUN, FLOU, 4SS, GAST, GSH, GCR, MCR, MUM, 9SS, RCR, SSH, SFL, SBA, 3SS, PER, WNFL, WFL","BRFU, ZOMA, GRAL, FUCU",10515,955.91,205.82775640963985
Trout River,PE,Tommy Gallant,46.448448,-63.465789,57,"2004, 2005, 2006, 2007, 2008, 2009, 2010, 2011, 2012, 2013, 2014, 2015, 2016, 2017, 2018","ALW, SILV, TOM, KIL, BSS, BTR, CUN, FLOU, 4SS, GAST, GSH, GCR, MUM, 9SS, PIP, SMEL, RTR, SSH, SCU, SFL, 3SS, UNK, PER, WFL","BRFU, COBR, CORE, ZOMA, GRAL, FUCU, RUMA",127997,8533.13,853.5667931828349
Bouctouche,NB,Treatment Plant outlet,46.46733,-64.722576,57,"2004, 2005, 2006, 2007, 2008, 2009, 2010, 2011, 2012, 2013, 2014, 2015, 2016, 2017, 2018","ALW, EEL, SILV, TOM, KIL, BSS, CUN, FLOU, 4SS, GSH, GCR, MCR, MUM, 9SS, PIP, SMEL, GUN, SSH, SCU, SFL, SBA, 3SS, WNFL, WFL","BRFU, COBR, CORE, ZOMA, GRAL, FUCU",57506,3833.73,334.7291719645808
Trout River,PE,Trout River Park,46.42157,-63.44011,57,"2004, 2005, 2006, 2007, 2008, 2009, 2010, 2011, 2012, 2013, 2014, 2015, 2016, 2017, 2018, 2019","ALW, EEL, SILV, KIL, BSS, BTR, FLOU, 4SS, GAST, GSH, MUM, 9SS, PIP, SSH, SFL, 3SS","ZOMA, GRAL, COFR, RUMA",51945,3246.56,530.0384962434332
Trout River,PE,Trout River Road,46.458182,-63.461426,58,"2004, 2005, 2006, 2007, 2008, 2009, 2010, 2011, 2012, 2013, 2014, 2015, 2016, 2017, 2018, 2019","EEL, SILV, TOM, KIL, BSS, BRST, BTR, CUN, FLOU, 4SS, GAST, GSH, GCR, GRUB, MCR, MUM, 9SS, PIP, GUN, SSH, SCU, SFL, 3SS, WFL","BRFU, COBR, CORE, ZOMA, GRAL, FUCU, RUMA",60395,3774.69,396.3920512241191
Desable River,PE,Visser's,46.192083333333336,-63.4204444444444,27,"2008, 2009, 2010, 2011, 2012, 2013, 2014","SAL, SILV, BSS, FLOU, GSH, GCR, MUM, 9SS, SMEL, RCR, SSH, SFL, 3SS, WFL","CORE, ZOMA, GRAL, KELP, FUCU",8820,1260.00,227.8687576294204
Mill River,PE,Waterview Rd.,46.760927,-64.12676,58,"2004, 2005, 2006, 2007, 2008, 2009, 2010, 2011, 2012, 2013, 2014, 2015, 2016, 2017, 2018, 2019","SILV, KIL, BSS, BTR, FLOU, 4SS, GAST, GSH, MCR, MUM, 9SS, PIP, SSH, SCU, SFL, 3SS, WFL","ZOMA, GRAL, FUCU, RUMA",72429,4526.81,653.1392909285062
Hillsborough,PE,West River/Causeway,46.188544,-63.232663,33,"2009, 2010, 2011, 2012, 2013, 2014, 2015, 2016, 2017, 2018, 2019","ALOSA , SILV, BSS, FLOU, 4SS, GSH, GCR, GRUB, MCR, MUM, 9SS, SMEL, SSH, SFL, 3SS, WFL","CORE, ZOMA, GRAL, FUCU",21748,1977.09,748.9353352174892
Shediac River,NB,Wetland,46.274617,-64.571954,43,"2007, 2008, 2009, 2010, 2011, 2012, 2013, 2014, 2015, 2016, 2017, 2018, 2019","ALW, SILV, KIL, BSS, CUN, FLOU, 4SS, GSH, GCR, MCR, MUM, 9SS, SMEL, SSH, SCU, SFL, 3SS, WFL","BRFU, CORE, ZOMA, GRAL",10966,843.54,105.96780451669444
St-Louis de Kent,NB,Wharf,46.757328,-64.917023,59,"2004, 2005, 2006, 2007, 2008, 2009, 2010, 2011, 2012, 2013, 2014, 2015, 2016, 2017, 2018, 2019","ALW, EEL, SILV, TOM, KIL, BSS, BTR, CUN, FLOU, 4SS, GAST, GSH, GCR, MCR, MUM, 9SS, SMEL, RCR, SSH, SFL, SBA, 3SS, TRO, WFL","BRFU, COBR, CORE, ZOMA, GRAL, RUMA",63307,3956.69,226.32409506729118
Cheticamp,NS,Wharf,46.626371,-61.01588,1,2019,"CUN, GSH, SCU, 3SS, UNK","BRFU, ZOMA, FUCU",93,93.00,30.295874306578444
Wheatley,PE,Wharf at the end of Camp road 50%,46.403786,-63.242724,3,2019,"SILV, BSS, BRST, 4SS, GSH, MUM, SSH, SFL, 3SS, WFL","ZOMA, GRAL",5428,5428.00,458.75556192813616
Winter River,PE,White Sickle 50%,46.384027,-63.032463,3,2019,"SILV, BSS, 4SS, GSH, MUM, SSH, 3SS, WFL","ZOMA, GRAL",18457,18457.00,3197.429441151418
Brudenell-Montague,PE,Wightman's Point,46.163516,-62.532719,49,"2005, 2006, 2007, 2008, 2009, 2010, 2011, 2012, 2013, 2014, 2015, 2016, 2017, 2018, 2019","SILV, BSS, BTR, CUN, FLOU, 4SS, GAST, GSH, GCR, MUM, 9SS, PIP, RCR, SSH, SFL, 3SS, WNFL, WFL","BRFU, COBR, CORE, ZOMA, GRAL, COFR, KELP, FUCU",9956,663.73,113.01463142082628
Eel Ground,NB,Wilson Point,46.96419,-65.59513,38,"2008, 2009, 2010, 2011, 2012, 2013, 2014, 2015, 2016, 2017, 2018, 2019","ALW, EEL, SAL, SILV, TOM, KIL, BSS, BRST, BTR, CHU, CYPR, 4SS, GAST, GSH, MCR, MUM, 9SS, SMEL, RTR, SSH, SFL, SBA, 3SS, UNK, WHSU","BRFU, ZOMA, GRAL",2707,225.58,38.613728830943586
Dunk River,PE,Woodside Shore rd 10%,46.34849,-63.729185,3,2019,"SILV, BSS, 4SS, GSH, MCR, MUM, 9SS, PIP, SSH, SFL, 3SS, WFL",GRAL,2573,2573.00,220.83207695671783
